City,State,Latitude,Longitude,Pop
Berlin,Germany,52.516667,13.4,3398362
Hamburg,Germany,53.55,10,1733846
Munich,Germany,48.15,11.5833,1246133
Cologne,Germany,50.933333,6.95,968823
Frankfurt,Germany,50.116667,8.683333,648034
Dortmund,Germany,51.516667,7.45,594255
Stuttgart,Germany,48.766667,9.183333,591688
Düsseldorf,Germany,51.216667,6.766667,577139
Essen,Germany,51.45,7.016667,576914
Bremen,Germany,53.083333,8.8,546429
Hanover,Germany,52.366667,9.716667,519144
Duisburg,Germany,51.433333,6.75,505271
Nuremberg,Germany,49.447778,11.068333,497593
Leipzig,Germany,51.3,12.333333,492637
Dresden,Germany,51.05,13.75,480801
Bochum,Germany,51.483333,7.216667,387061
Wuppertal,Germany,51.266667,7.183333,363240
Bielefeld,Germany,52.033333,8.533333,327198
Bonn,Germany,50.733333,7.1,314081
Mannheim,Germany,49.488333,8.464722,309626
Karlsruhe,Germany,49.004722,8.385833,284786
Münster,Germany,51.966667,7.633333,272452
Wiesbaden,Germany,50.083333,8.25,272337
Gelsenkirchen,Germany,51.516667,7.05,271647
Mönchengladbach,Germany,51.2,6.433333,264969
Augsburg,Germany,48.366667,10.883333,261842
Aachen,Germany,50.770833,6.105278,251104
Chemnitz,Germany,50.833333,12.916667,246654
Brunswick,Germany,52.266667,10.533333,245259
Krefeld,Germany,51.333333,6.566667,239908
Kiel,Germany,54.333333,10.133333,235264
Halle,Germany,51.5,12,232452
Magdeburg,Germany,52.166667,11.666667,224428
Oberhausen,Germany,51.466667,6.85,220916
Freiburg,Germany,48,7.85,213920
Lübeck,Germany,53.866667,10.7,213171
Hagen,Germany,51.35,7.466667,199497
Rostock,Germany,54.083333,12.133333,196833
Erfurt,Germany,50.983333,11.033333,196719
Kassel,Germany,51.316667,9.5,193117
Mainz,Germany,50,8.271111,187940
Hamm,Germany,51.683333,7.8,186289
Saarbrücken,Germany,49.233333,7,181779
Herne,Germany,51.55,7.216667,173121
Mülheim,Germany,51.433333,6.883333,172779
Osnabrück,Germany,52.266667,8.05,165372
Solingen,Germany,51.183333,7.083333,165192
Ludwigshafen,Germany,49.481111,8.435278,162514
Oldenburg,Germany,53.166667,8.2,160347
Leverkusen,Germany,51.016667,6.983333,159088
Neuss,Germany,51.2,6.683333,152975
Potsdam,Germany,52.4,13.066667,145291
Heidelberg,Germany,49.416667,8.7,144703
Paderborn,Germany,51.716667,8.766667,143096
Darmstadt,Germany,49.870556,8.649444,139757
Würzburg,Germany,49.787778,9.936111,134499
Ratisbon,Germany,49.015,12.095556,129643
Göttingen,Germany,51.533333,9.933333,123570
Wolfsburg,Germany,52.433333,10.8,123184
Recklinghausen,Germany,51.616667,7.2,122727
Heilbronn,Germany,49.140278,9.22,121822
Bottrop,Germany,51.516667,6.916667,120829
Ulm,Germany,48.4,10,120745
Offenbach,Germany,50.1,8.766667,120641
Ingolstadt,Germany,48.766667,11.433333,120598
Pforzheim,Germany,48.883333,8.7,120366
Bremerhaven,Germany,53.55,8.583333,119688
Remscheid,Germany,51.183333,7.2,118230
Cottbus,Germany,51.766667,14.333333,115246
Reutlingen,Germany,48.483333,9.216667,113625
Fürth,Germany,49.466667,10.966667,112959
Salzgitter,Germany,52.083333,10.333333,111622
Moers,Germany,51.45,6.65,109167
Siegen,Germany,50.866667,8.033333,108228
Koblenz,Germany,50.35,7.6,108146
Bergisch Gladbach,Germany,50.983333,7.133333,106611
Gera,Germany,50.866667,12.083333,104463
Hildesheim,Germany,52.15,9.966667,102958
Erlangen,Germany,49.589722,11.003889,102781
Witten,Germany,51.433333,7.333333,101122
Trier,Germany,49.75,6.633333,100649
Zwickau,Germany,50.733333,12.5,99343
Jena,Germany,50.933333,11.583333,99269
Kaiserslautern,Germany,49.45,7.75,98947
Iserlohn,Germany,51.366667,7.7,98190
Gütersloh,Germany,51.9,8.383333,96332
Schwerin,Germany,53.633333,11.383333,96329
Düren,Germany,50.8,6.483333,92956
Esslingen,Germany,48.75,9.3,92710
Ratingen,Germany,51.3,6.85,92306
Lünen,Germany,51.616667,7.516667,91912
Marl,Germany,51.65,7.083333,91262
Hanau,Germany,50.133333,8.916667,89938
Velbert,Germany,51.333333,7.05,88876
Ludwigsburg,Germany,48.9,9.183333,87855
Flensburg,Germany,54.783333,9.433333,85158
Wilhelmshaven,Germany,53.516667,8.133333,84209
Tübingen,Germany,48.533333,9.05,83815
Minden,Germany,52.283333,8.916667,83402
Villingen-Schwenningen,Germany,48.066667,8.45,82286
Worms,Germany,49.635556,8.359722,82104
Konstanz,Germany,47.666667,9.183333,81951
Dorsten,Germany,51.666667,6.966667,80180
Lüdenscheid,Germany,51.216667,7.616667,80045
Neumünster,Germany,54.066667,9.983333,79429
Marburg,Germany,50.816667,8.766667,79300
Castrop-Rauxel,Germany,51.55,7.316667,78587
Arnsberg,Germany,51.383333,8.083333,77415
Gladbeck,Germany,51.566667,6.983333,77264
Viersen,Germany,51.25,6.383333,76771
Dessau,Germany,51.833333,12.25,76628
Rheine,Germany,52.283333,7.45,76474
Delmenhorst,Germany,53.05,8.616667,75740
Troisdorf,Germany,50.816667,7.166667,75641
Brandenburg,Germany,52.416667,12.55,75507
Detmold,Germany,51.933333,8.883333,74853
Bayreuth,Germany,49.948056,11.578333,74840
Bocholt,Germany,51.833333,6.6,73872
Lüneburg,Germany,53.25,10.4,73252
Norderstedt,Germany,53.7,10.016667,72011
Dinslaken,Germany,51.566667,6.733333,71632
Celle,Germany,52.616667,10.083333,71106
Bamberg,Germany,49.866667,10.866667,70471
Plauen,Germany,50.5,12.133333,69378
Aschaffenburg,Germany,49.973889,9.149167,69248
Unna,Germany,51.533333,7.683333,69138
Lippstadt,Germany,51.666667,8.35,67638
Aalen,Germany,48.833333,10.1,67593
Neubrandenburg,Germany,53.566667,13.266667,67393
Neuwied,Germany,50.433333,7.466667,66901
Herford,Germany,52.133333,8.683333,65834
Herten,Germany,51.6,7.133333,65367
Weimar,Germany,50.983333,11.316667,65113
Grevenbroich,Germany,51.083333,6.583333,64851
Kerpen,Germany,50.866667,6.7,64729
Frankfurt,Germany,52.35,14.55,64399
Dormagen,Germany,51.1,6.833333,64129
Bergheim,Germany,50.966667,6.65,64082
Fulda,Germany,50.55,9.666667,63851
Garbsen,Germany,52.416667,9.6,63354
Kempten,Germany,47.716667,10.316667,61800
Wesel,Germany,51.666667,6.616667,61768
Sindelfingen,Germany,48.7,9.016667,61686
Schwäbisch Gmünd,Germany,48.8,9.783333,61379
Landshut,Germany,48.533333,12.15,61131
Rosenheim,Germany,47.85,12.133333,60768
Rüsselsheim,Germany,49.9925,8.435,59911
Hameln,Germany,52.1,9.35,59349
Offenburg,Germany,48.483333,7.933333,59109
Menden,Germany,51.433333,7.8,58939
Stolberg,Germany,50.766667,6.233333,58900
Langenfeld,Germany,51.1,6.95,58803
Hattingen,Germany,51.4,7.166667,58076
Göppingen,Germany,48.7,9.666667,58021
Friedrichshafen,Germany,47.65,9.483333,58005
Stralsund,Germany,54.3,13.1,57959
Görlitz,Germany,51.166667,15,57097
Hilden,Germany,51.166667,6.933333,57036
Sankt Augustin,Germany,50.766667,7.183333,56258
Eschweiler,Germany,50.816667,6.283333,55888
Bad Salzuflen,Germany,52.083333,8.766667,55348
Hürth,Germany,50.866667,6.866667,55217
Ahlen,Germany,51.75,7.916667,55112
Meerbusch,Germany,51.283333,6.666667,55053
Wolfenbüttel,Germany,52.166667,10.55,54911
Euskirchen,Germany,50.666667,6.783333,54855
Baden-Baden,Germany,48.75,8.25,54802
Schweinfurt,Germany,50.05,10.233333,54801
Pulheim,Germany,51,6.8,54209
Waiblingen,Germany,48.833333,9.3,53515
Gummersbach,Germany,51.033333,7.55,53244
Nordhorn,Germany,52.433333,7.083333,52906
Cuxhaven,Germany,53.883333,8.7,52873
Wetzlar,Germany,50.55,8.5,52869
Bergkamen,Germany,51.633333,7.633333,52670
Willich,Germany,51.266667,6.55,52100
Greifswald,Germany,54.1,13.383333,51935
Bad Homburg,Germany,50.216667,8.616667,51923
Neu-Ulm,Germany,48.4,10.016667,51654
Emden,Germany,53.366667,7.216667,51639
Erftstadt,Germany,50.816667,6.766667,51606
Lingen,Germany,52.516667,7.316667,51577
Ibbenbüren,Germany,52.266667,7.733333,51305
Passau,Germany,48.583333,13.483333,51091
Schwerte,Germany,51.45,7.566667,50757
Heidenheim,Germany,48.683333,10.15,50684
Neunkirchen,Germany,49.35,7.183333,50432
Langenhagen,Germany,52.45,9.75,49958
Peine,Germany,52.316667,10.233333,49776
Bad Oeynhausen,Germany,52.2,8.8,49698
Cleves,Germany,51.783333,6.15,49448
Hof,Germany,50.316667,11.916667,49353
Bornheim,Germany,50.766667,7,49126
Elmshorn,Germany,53.75,9.65,48744
Soest,Germany,51.583333,8.116667,48720
Rastatt,Germany,48.85,8.2,48452
Ravensburg,Germany,47.783333,9.616667,48441
Frechen,Germany,50.916667,6.816667,48198
Erkrath,Germany,51.216667,6.9,47908
Dülmen,Germany,51.833333,7.3,47899
Lörrach,Germany,47.616288,7.664842,47666
Frankenthal,Germany,49.537222,8.355,47523
Herzogenrath,Germany,50.866667,6.1,47425
Gotha,Germany,50.95,10.716667,47214
Albstadt,Germany,48.25,9.016667,47064
Böblingen,Germany,48.683333,9.016667,46830
Melle,Germany,52.2,8.35,46745
Alsdorf,Germany,50.883333,6.166667,46558
Singen,Germany,47.766667,8.833333,46386
Rheda-Wiedenbrück,Germany,51.833333,8.316667,46378
Leonberg,Germany,48.8,9.016667,46276
Kamen,Germany,51.6,7.666667,46076
Gronau,Germany,52.2,7.033333,46061
Hennef,Germany,50.783333,7.283333,45829
Neustadt,Germany,52.5,9.466667,45661
Wismar,Germany,53.9,11.466667,45432
Stade,Germany,53.6,9.483333,45419
Bünde,Germany,52.2,8.583333,45389
Homburg,Germany,49.316667,7.333333,45010
Amberg,Germany,49.441389,11.862222,44873
Brühl,Germany,50.833333,6.9,44588
Straubing,Germany,48.883333,12.566667,44504
Lehrte,Germany,52.383333,9.966667,44495
Erkelenz,Germany,51.083333,6.316667,44479
Eisenach,Germany,50.983333,10.316667,44399
Fellbach,Germany,48.8,9.283333,44142
Monheim,Germany,51.083333,6.883333,43905
Rodgau,Germany,50.016667,8.833333,43760
Nordhausen,Germany,51.516667,10.8,43709
Lahr,Germany,48.35,7.866667,43676
Bruchsal,Germany,49.128056,8.583611,43615
Filderstadt,Germany,48.666667,9.216667,43580
Pirmasens,Germany,49.2,7.6,43539
Goslar,Germany,51.9,10.433333,43461
Kaufbeuren,Germany,47.883333,10.616667,43454
Bad Kreuznach,Germany,49.833333,7.866667,43317
Oranienburg,Germany,52.75,13.233333,43275
Suhl,Germany,50.6,10.7,43269
Hoyerswerda,Germany,51.433333,14.25,43267
Weinheim,Germany,49.548333,8.666111,43217
Freiberg,Germany,50.916667,13.366667,43160
Rottenburg,Germany,48.466667,8.933333,43117
Nettetal,Germany,51.316667,6.283333,42959
Oberursel,Germany,50.2,8.583333,42880
Kaarst,Germany,51.233333,6.616667,42876
Gifhorn,Germany,52.483333,10.55,42699
Coburg,Germany,50.25,10.966667,42413
Heinsberg,Germany,51.066667,6.083333,42409
Weiden,Germany,49.6775,12.156667,42387
Freising,Germany,48.4,11.733333,42322
Wunstorf,Germany,52.433333,9.416667,42145
Lemgo,Germany,52.033333,8.9,42036
Landau,Germany,49.2075,8.113333,42031
Bietigheim-Bissingen,Germany,48.966667,9.133333,41979
Löhne,Germany,52.183333,8.666667,41805
Völklingen,Germany,49.25,6.85,41799
Bautzen,Germany,51.183333,14.433333,41606
Seevetal,Germany,53.4,9.966667,41557
Eberswalde,Germany,52.833333,13.833333,41384
Königswinter,Germany,50.683333,7.183333,41248
Memmingen,Germany,47.983333,10.166667,41210
Borken,Germany,51.85,6.866667,41179
Dreieich,Germany,50,8.7,41054
Nürtingen,Germany,48.633333,9.35,41002
Aurich,Germany,53.466667,7.483333,40987
Ansbach,Germany,49.3,10.583333,40822
Pinneberg,Germany,53.65,9.8,40679
Laatzen,Germany,52.316667,9.8,40245
Kirchheim,Germany,48.65,9.45,40144
Schwedt,Germany,53.066667,14.3,40005
Kamp-Lintfort,Germany,51.5,6.533333,39949
Schorndorf,Germany,48.8,9.533333,39919
Dachau,Germany,48.266667,11.433333,39815
Hückelhoven,Germany,51.05,6.216667,39765
Pirna,Germany,50.966667,13.933333,39701
Ettlingen,Germany,48.95,8.4,39635
Bensheim,Germany,49.680278,8.616111,39450
Halberstadt,Germany,51.9,11.05,39391
Mettmann,Germany,51.25,6.966667,39371
Hemer,Germany,51.383333,7.766667,39288
Warendorf,Germany,51.95,7.983333,39281
Voerde,Germany,51.6,6.683333,39052
Ahaus,Germany,52.066667,7,38932
Schwabach,Germany,49.329167,11.025556,38921
Siegburg,Germany,50.8,7.2,38818
Freital,Germany,51.016667,13.65,38815
Maintal,Germany,50.15,8.833333,38656
Sankt Ingbert,Germany,49.283333,7.116667,38654
Hofheim,Germany,50.083333,8.45,38482
Altenburg,Germany,50.983333,12.45,38338
Buxtehude,Germany,53.45,9.7,38236
Haltern,Germany,51.733333,7.183333,38212
Falkensee,Germany,52.566667,13.083333,37916
Beckum,Germany,51.75,8.033333,37914
Saarlouis,Germany,49.316667,6.75,37663
Würselen,Germany,50.816667,6.133333,37594
Stendal,Germany,52.6,11.85,37402
Leinfelden-Echterdingen,Germany,48.7,9.15,37210
Datteln,Germany,51.666667,7.383333,37130
Wermelskirchen,Germany,51.15,7.216667,36952
Coesfeld,Germany,51.933333,7.15,36929
Germering,Germany,48.133333,11.366667,36905
Riesa,Germany,51.3,13.3,36788
Lage,Germany,51.983333,8.8,36709
Schwäbisch Hall,Germany,49.105833,9.734167,36590
Kempen,Germany,51.366667,6.416667,36506
Backnang,Germany,48.95,9.433333,36477
Niederkassel,Germany,50.816667,7.033333,36426
Porta Westfalica,Germany,52.216667,8.933333,36419
Wesseling,Germany,50.833333,6.983333,36296
Mühlhausen,Germany,51.216667,10.45,36287
Zweibrücken,Germany,49.25,7.366667,35970
Eisenhüttenstadt,Germany,52.15,14.65,35839
Langen,Germany,49.993333,8.672778,35755
Sinsheim,Germany,49.255278,8.877222,35740
Greven,Germany,52.1,7.616667,35732
Emsdetten,Germany,52.183333,7.533333,35383
Tuttlingen,Germany,47.983333,8.816667,35133
Uelzen,Germany,52.966667,10.566667,35096
Jülich,Germany,50.933333,6.366667,34888
Papenburg,Germany,53.066667,7.4,34715
Balingen,Germany,48.283333,8.85,34680
Wernigerode,Germany,51.833333,10.783333,34674
Kehl,Germany,48.583333,7.816667,34493
Steinfurt,Germany,52.15,7.35,34478
Merseburg,Germany,51.366667,12,34440
Schönebeck,Germany,52.016667,11.75,34358
Barsinghausen,Germany,52.3,9.45,34322
Geldern,Germany,51.516667,6.333333,34291
Meppen,Germany,52.683333,7.316667,34205
Fürstenfeldbruck,Germany,48.183333,11.25,34194
Mörfelden-Walldorf,Germany,49.994722,8.583611,34194
Ostfildern,Germany,48.716667,9.266667,34162
Leer,Germany,53.233333,7.433333,34081
Goch,Germany,51.666667,6.166667,34045
Limburg,Germany,50.383333,8.05,33955
Königs Wusterhausen,Germany,52.283333,13.616667,33872
Korschenbroich,Germany,51.183333,6.516667,33588
Bernau,Germany,52.666667,13.583333,33481
Itzehoe,Germany,53.916667,9.516667,33415
Seelze,Germany,52.4,9.6,33224
Fürstenwalde,Germany,52.366667,14.066667,33199
Stuhr,Germany,53.033333,8.75,33110
Gevelsberg,Germany,51.316667,7.333333,32978
Dietzenbach,Germany,50.016667,8.783333,32975
Höxter,Germany,51.766667,9.383333,32962
Georgsmarienhütte,Germany,52.2,8.05,32945
Viernheim,Germany,49.541667,8.578611,32921
Idar-Oberstein,Germany,49.7,7.3,32876
Bernburg,Germany,51.8,11.733333,32859
Radebeul,Germany,51.1,13.65,32698
Crailsheim,Germany,49.15,10.083333,32666
Wedel,Germany,53.583333,9.716667,32619
Meschede,Germany,51.35,8.283333,32593
Rheinfelden,Germany,47.566667,7.8,32538
Nienburg,Germany,52.633333,9.216667,32512
Biberach,Germany,48.1,9.8,32501
Ennepetal,Germany,51.3,7.35,32426
Erding,Germany,48.3,11.933333,32377
Werl,Germany,51.55,7.916667,32304
Rheinberg,Germany,51.55,6.6,32178
Neuruppin,Germany,52.933333,12.8,32173
Lampertheim,Germany,49.601944,8.471944,31873
Lohmar,Germany,50.833333,7.216667,31802
Kreuztal,Germany,50.966667,7.983333,31720
Osterholz-Scharmbeck,Germany,53.233333,8.8,31469
Herrenberg,Germany,48.6,8.866667,31401
Ganderkesee,Germany,53.033333,8.533333,31262
Deggendorf,Germany,48.833333,12.966667,31146
Merzig,Germany,49.45,6.633333,31141
Cloppenburg,Germany,52.85,8.033333,31030
Bad Vilbel,Germany,50.183333,8.75,30933
Güstrow,Germany,53.8,12.166667,30869
Forchheim,Germany,49.723056,11.066944,30838
Ahrensburg,Germany,53.683333,10.25,30797
Kornwestheim,Germany,48.866667,9.183333,30756
Northeim,Germany,51.7,10,30751
Delbrück,Germany,51.766667,8.566667,30699
Bad Hersfeld,Germany,50.866667,9.7,30630
Tönisvorst,Germany,51.316667,6.45,30579
Oer-Erkenschwick,Germany,51.633333,7.25,30474
Schwelm,Germany,51.283333,7.283333,30470
Radolfzell,Germany,47.733333,8.966667,30385
Bad Nauheim,Germany,50.366667,8.75,30369
Burgdorf,Germany,52.45,10.016667,30288
Springe,Germany,52.216667,9.55,30284
Vechta,Germany,52.716667,8.283333,30178
Waltrop,Germany,51.633333,7.4,30150
Achim,Germany,53.033333,9.016667,30117
Naumburg,Germany,51.15,11.816667,30040
Wegberg,Germany,51.15,6.266667,29931
Geesthacht,Germany,53.433333,10.366667,29853
Gaggenau,Germany,48.8,8.333333,29800
Emmerich,Germany,51.833333,6.25,29753
Sundern,Germany,51.333333,8,29648
Oelde,Germany,51.816667,8.15,29608
Zeitz,Germany,51.05,12.15,29582
Friedberg,Germany,48.35,10.983333,29581
Taunusstein,Germany,50.15,8.15,29461
Bühl,Germany,48.7,8.15,29434
Haan,Germany,51.2,7,29369
Wetter,Germany,51.383333,7.4,29328
Vaihingen,Germany,48.933333,8.966667,29284
Andernach,Germany,50.433333,7.4,29089
Warstein,Germany,51.45,8.366667,29029
Rendsburg,Germany,54.3,9.666667,28814
Senftenberg,Germany,51.516667,14.016667,28812
Bretten,Germany,49.039167,8.702778,28774
Bramsche,Germany,52.4,7.983333,28773
Köthen,Germany,51.75,11.966667,28700
Rietberg,Germany,51.783333,8.433333,28683
Burg,Germany,52.266667,11.85,28602
Geilenkirchen,Germany,50.966667,6.116667,28587
Spremberg,Germany,51.55,14.366667,28444
Baunatal,Germany,51.25,9.416667,28338
Heiligenhaus,Germany,51.316667,6.966667,28312
Plettenberg,Germany,51.216667,7.883333,28247
Winnenden,Germany,48.883333,9.4,28230
Einbeck,Germany,51.816667,9.866667,28179
Friedberg,Germany,50.35,8.766667,28164
Saalfeld,Germany,50.65,11.366667,28152
Kevelaer,Germany,51.583333,6.25,28148
Lennestadt,Germany,51.116667,8.066667,28142
Schwandorf,Germany,49.326389,12.109722,28124
Rinteln,Germany,52.183333,9.083333,28048
Bad Neuenahr-Ahrweiler,Germany,50.55,7.1,27972
Baesweiler,Germany,50.9,6.183333,27865
Nordenham,Germany,53.5,8.483333,27783
Hamminkeln,Germany,51.733333,6.583333,27755
Selm,Germany,51.7,7.466667,27596
Mechernich,Germany,50.6,6.65,27551
Leichlingen,Germany,51.116667,7.016667,27532
Neckarsulm,Germany,49.192778,9.226111,27530
Ilmenau,Germany,50.683333,10.9,27471
Rösrath,Germany,50.9,7.2,27353
Kulmbach,Germany,50.1,11.45,27346
Leimen,Germany,49.351111,8.689444,27323
Brilon,Germany,51.4,8.583333,27186
Sankt Wendel,Germany,49.466667,7.166667,27162
Petershagen,Germany,52.383333,8.966667,27148
Lübbecke,Germany,52.3,8.616667,27131
Overath,Germany,50.95,7.3,27073
Rathenow,Germany,52.6,12.333333,27058
Strausberg,Germany,52.583333,13.883333,26835
Kelkheim,Germany,50.133333,8.45,26823
Emmendingen,Germany,48.133333,7.85,26820
Wiehl,Germany,50.95,7.533333,26784
Mühlheim,Germany,50.116667,8.833333,26753
Limbach-Oberfrohna,Germany,50.866667,12.75,26721
Espelkamp,Germany,52.383333,8.616667,26684
Mühlacker,Germany,48.95,8.833333,26674
Wiesloch,Germany,49.297778,8.701389,26642
Bad Zwischenahn,Germany,53.183333,8,26641
Landsberg,Germany,48.05,10.866667,26624
Hennigsdorf,Germany,52.633333,13.2,26498
Verden,Germany,52.916667,9.233333,26364
Garmisch-Partenkirchen,Germany,47.5,11.1,26346
Horb,Germany,48.433333,8.683333,26287
Glauchau,Germany,50.816667,12.533333,26260
Schmallenberg,Germany,51.15,8.3,26218
Rheinbach,Germany,50.633333,6.95,26195
Lauf,Germany,49.510278,11.2775,26181
Ehingen,Germany,48.283333,9.733333,26154
Sprockhövel,Germany,51.35,7.25,26125
Henstedt-Ulzburg,Germany,53.783333,10,26062
Arnstadt,Germany,50.833333,10.95,25995
Übach-Palenberg,Germany,50.933333,6.116667,25957
Herdecke,Germany,51.4,7.433333,25954
Olpe,Germany,51.033333,7.85,25939
Werder,Germany,52.383333,12.95,25913
Butzbach,Germany,50.433333,8.683333,25804
Rottweil,Germany,48.166667,8.616667,25783
Rudolstadt,Germany,50.716667,11.333333,25773
Helmstedt,Germany,52.233333,11,25686
Hannoversch Münden,Germany,51.416667,9.683333,25612
Heppenheim,Germany,49.640833,8.637222,25580
Hattersheim,Germany,50.066667,8.466667,25544
Zittau,Germany,50.9,14.833333,25527
Meckenheim,Germany,50.633333,7.016667,25491
Mosbach,Germany,49.353889,9.142778,25474
Griesheim,Germany,49.862778,8.575278,25432
Auerbach,Germany,50.516667,12.4,25430
Ellwangen,Germany,48.966667,10.133333,25396
Reinbek,Germany,53.516667,10.25,25357
Lohne,Germany,52.666667,8.233333,25332
Varel,Germany,53.4,8.133333,25303
Ingelheim,Germany,49.980556,8.073611,25296
Zirndorf,Germany,49.45,10.95,25237
Bedburg,Germany,51,6.583333,25224
Netphen,Germany,50.916667,8.1,25187
Delitzsch,Germany,51.533333,12.35,25160
Pfungstadt,Germany,49.806389,8.606944,25151
Wolfen,Germany,51.666667,12.283333,25144
Attendorn,Germany,51.116667,7.9,25014
Roth,Germany,49.245,11.091111,24959
Waldkraiburg,Germany,48.216667,12.4,24939
Wertheim,Germany,49.7575,9.509444,24920
Friedrichsdorf,Germany,50.266667,8.65,24897
Bingen,Germany,49.966667,7.9,24844
Ludwigsfelde,Germany,52.3,13.266667,24823
Dillenburg,Germany,50.733333,8.283333,24772
Norden,Germany,53.6,7.2,24686
Korbach,Germany,51.283333,8.866667,24657
Aschersleben,Germany,51.75,11.466667,24569
Verl,Germany,51.883333,8.516667,24532
Olching,Germany,48.2,11.333333,24526
Weiterstadt,Germany,49.907778,8.595278,24499
Walsrode,Germany,52.866667,9.6,24439
Warburg,Germany,51.5,9.166667,24399
Freudenstadt,Germany,48.433333,8.416667,24384
Apolda,Germany,51.016667,11.5,24380
Salzkotten,Germany,51.666667,8.6,24369
Sonneberg,Germany,50.35,11.166667,24351
Werdau,Germany,50.733333,12.383333,24299
Radevormwald,Germany,51.2,7.35,24298
Obertshausen,Germany,50.083333,8.85,24280
Wallenhorst,Germany,52.35,8.016667,24279
Achern,Germany,48.633333,8.066667,24272
Ditzingen,Germany,48.833333,9.066667,24255
Calw,Germany,48.716667,8.733333,24220
Lüdinghausen,Germany,51.766667,7.466667,24218
Lindau,Germany,47.55,9.683333,24161
Salzwedel,Germany,52.85,11.15,24144
Syke,Germany,52.9,8.833333,24084
Schleswig,Germany,54.516667,9.55,24061
Bad Oldesloe,Germany,53.816667,10.383333,23982
Greiz,Germany,50.65,12.2,23931
Weingarten,Germany,47.8,9.633333,23928
Harsewinkel,Germany,51.966667,8.233333,23910
Ronnenberg,Germany,52.316667,9.65,23604
Wipperfürth,Germany,51.116667,7.4,23507
Fröndenberg,Germany,51.466667,7.766667,23499
Nagold,Germany,48.55,8.716667,23486
Stadthagen,Germany,52.316667,9.2,23474
Idstein,Germany,50.233333,8.266667,23432
Geretsried,Germany,47.866667,11.466667,23377
Sangerhausen,Germany,51.466667,11.3,23301
Schwetzingen,Germany,49.378056,8.581944,23270
Herzogenaurach,Germany,49.55,10.883333,23229
Markkleeberg,Germany,51.283333,12.4,23220
Eckernförde,Germany,54.466667,9.833333,23184
Öhringen,Germany,49.201667,9.503889,23068
Quedlinburg,Germany,51.783333,11.15,23057
Haren,Germany,52.783333,7.233333,23038
Blieskastel,Germany,49.233333,7.25,22938
Annaberg-Buchholz,Germany,50.566667,13,22849
Duderstadt,Germany,51.516667,10.266667,22842
Starnberg,Germany,48,11.35,22827
Lindlar,Germany,51.016667,7.383333,22752
Büren,Germany,51.55,8.566667,22703
Hohen Neuendorf,Germany,52.666667,13.283333,22687
Bad Harzburg,Germany,51.883333,10.566667,22670
Rees,Germany,51.766667,6.4,22654
Waldshut-Tiengen,Germany,47.616667,8.216667,22648
Leutkirch,Germany,47.825,10.016667,22645
Lengerich,Germany,52.183333,7.866667,22642
Reichenbach,Germany,50.616667,12.3,22569
Wülfrath,Germany,51.283333,7.05,22549
Forst,Germany,51.733333,14.633333,22521
Crimmitschau,Germany,50.816667,12.383333,22410
Sehnde,Germany,52.316667,9.95,22400
Marsberg,Germany,51.45,8.85,22361
Jüchen,Germany,51.1,6.5,22333
Neustrelitz,Germany,53.366667,13.083333,22312
Vreden,Germany,52.033333,6.833333,22250
Westerstede,Germany,53.25,7.933333,22209
Senden,Germany,48.316667,10.066667,22199
Büdingen,Germany,50.3,9.116667,22157
Rotenburg,Germany,53.116667,9.4,22108
Soltau,Germany,52.983333,9.833333,22108
Bad Mergentheim,Germany,49.4925,9.773611,22072
Metzingen,Germany,48.533333,9.266667,22034
Alfter,Germany,50.733333,7.016667,22028
Seesen,Germany,51.9,10.183333,21976
Coswig,Germany,51.133333,13.583333,21965
Sondershausen,Germany,51.366667,10.866667,21954
Meinerzhagen,Germany,51.116667,7.65,21907
Elsdorf,Germany,50.933333,6.566667,21901
Stadtallendorf,Germany,50.833333,9.016667,21789
Bad Pyrmont,Germany,51.983333,9.25,21741
Karben,Germany,50.233333,8.75,21718
Kitzingen,Germany,49.733333,10.166667,21705
Donaueschingen,Germany,47.95,8.5,21699
Lebach,Germany,49.4,6.916667,21665
Weilheim,Germany,47.833333,11.15,21635
Überlingen,Germany,47.766667,9.166667,21613
Guben,Germany,51.95,14.716667,21602
Lichtenfels,Germany,50.15,11.066667,21586
Meiningen,Germany,50.55,10.416667,21570
Eschwege,Germany,51.183333,10.066667,21546
Traunreut,Germany,47.966667,12.6,21535
Bad Kissingen,Germany,50.2,10.083333,21527
Sonthofen,Germany,47.516667,10.283333,21512
Waren,Germany,53.516667,12.683333,21504
Wilnsdorf,Germany,50.816667,8.1,21498
Eppingen,Germany,49.136944,8.910278,21457
Dillingen,Germany,49.35,6.733333,21451
Bad Soden,Germany,50.133333,8.5,21418
Gelnhausen,Germany,50.2,9.183333,21417
Wittmund,Germany,53.566667,7.783333,21417
Herborn,Germany,50.683333,8.316667,21404
Löbau,Germany,51.1,14.666667,21398
Lübbenau,Germany,51.866667,13.966667,21356
Döbeln,Germany,51.116667,13.116667,21318
Xanten,Germany,51.666667,6.45,21294
Alfeld,Germany,51.983333,9.833333,21258
Schortens,Germany,53.533333,7.95,21251
Versmold,Germany,52.05,8.15,21227
Luckenwalde,Germany,52.083333,13.166667,21217
Püttlingen,Germany,49.283333,6.883333,21142
Bückeburg,Germany,52.266667,9.05,21077
Holzminden,Germany,51.816667,9.45,21028
Neu Wulmstorf,Germany,53.466667,9.8,20988
Vaterstetten,Germany,48.116667,11.783333,20962
Aichach,Germany,48.466667,11.133333,20935
Prenzlau,Germany,53.316667,13.866667,20922
Halle,Germany,52.066667,8.366667,20921
Engelskirchen,Germany,50.983333,7.4,20883
Sömmerda,Germany,51.15,11.1,20872
Bad Rappenau,Germany,49.240556,9.1025,20868
Bergneustadt,Germany,51.033333,7.65,20865
Bad Berleburg,Germany,51.05,8.4,20830
Bruchköbel,Germany,50.183333,8.916667,20820
Hockenheim,Germany,49.322778,8.545833,20814
Geseke,Germany,51.65,8.516667,20790
Husum,Germany,54.466667,9.05,20753
Unterhaching,Germany,48.05,11.633333,20751
Hiddenhausen,Germany,52.166667,8.616667,20742
Stadtlohn,Germany,51.983333,6.933333,20726
Germersheim,Germany,49.223056,8.363889,20706
Ennigerloh,Germany,51.833333,8.016667,20678
Altena,Germany,51.3,7.666667,20641
Kürten,Germany,51.05,7.266667,20588
Edewecht,Germany,53.133333,7.983333,20519
Sulzbach-Rosenberg,Germany,49.498333,11.751667,20511
Werdohl,Germany,51.266667,7.766667,20481
Uetze,Germany,52.466667,10.2,20477
Eschborn,Germany,50.133333,8.55,20438
Enger,Germany,52.133333,8.566667,20417
Rastede,Germany,53.25,8.2,20358
Eislingen,Germany,48.7,9.7,20343
Gersthofen,Germany,48.416667,10.883333,20322
Wittenberge,Germany,53,11.75,20322
Heide,Germany,54.2,9.1,20309
Quickborn,Germany,53.733333,9.9,20281
Nidderau,Germany,50.25,8.9,20274
Oberkirch,Germany,48.533333,8.083333,20264
Nottuln,Germany,51.933333,7.35,20256
Vlotho,Germany,52.166667,8.85,20219
Giengen,Germany,48.616667,10.25,20211
Mössingen,Germany,48.4,9.066667,20197
Waldkirch,Germany,48.1,7.966667,20193
Friesoythe,Germany,53.016667,7.85,20178
Bad Langensalza,Germany,51.1,10.65,20144
Steinhagen,Germany,52,8.4,20143
Haiger,Germany,50.75,8.216667,20134
Haldensleben,Germany,52.3,11.416667,20131
Heusweiler,Germany,49.35,6.933333,20094
Bad Schwartau,Germany,53.916667,10.7,20052
Zülpich,Germany,50.7,6.65,20010
Wachtberg,Germany,50.633333,7.1,20004
Schwalmstadt,Germany,50.933333,9.216667,20002
Schwanewede,Germany,53.233333,8.6,19985
Hörstel,Germany,52.316667,7.583333,19979
Wenden,Germany,50.966667,7.866667,19977
Flörsheim,Germany,50.016667,8.433333,19936
Oschersleben,Germany,52.033333,11.25,19929
Schopfheim,Germany,47.65,7.816667,19919
Senden,Germany,51.85,7.5,19880
Hessisch Oldendorf,Germany,52.166667,9.25,19871
Eitorf,Germany,50.766667,7.45,19867
Wittstock,Germany,53.15,12.5,19811
Templin,Germany,53.116667,13.5,19764
Bad Waldsee,Germany,47.916667,9.766667,19749
Bad Driburg,Germany,51.733333,9.016667,19743
Telgte,Germany,51.983333,7.783333,19739
Seligenstadt,Germany,50.05,8.983333,19711
Hechingen,Germany,48.35,8.983333,19671
Waldbröl,Germany,50.883333,7.616667,19660
Nördlingen,Germany,48.85,10.5,19646
Teltow,Germany,52.4,13.266667,19624
Burscheid,Germany,51.1,7.116667,19579
Ochtrup,Germany,52.216667,7.183333,19543
Schneverdingen,Germany,53.116667,9.8,19537
Schwalmtal,Germany,51.216667,6.266667,19510
Günzburg,Germany,48.45,10.266667,19507
Gauting,Germany,48.066667,11.366667,19381
Waghäusel,Germany,49.256389,8.507222,19373
Bexbach,Germany,49.333333,7.266667,19372
Mayen,Germany,50.333333,7.216667,19372
Frankenberg,Germany,51.066667,8.8,19366
Schkeuditz,Germany,51.4,12.216667,19337
Weil der Stadt,Germany,48.75,8.866667,19310
Puchheim,Germany,48.15,11.35,19278
Buchen,Germany,49.523889,9.323056,19276
Heusenstamm,Germany,50.066667,8.8,19257
Ottobrunn,Germany,48.066667,11.683333,19254
Nauen,Germany,52.6,12.883333,19203
Gröbenzell,Germany,48.2,11.366667,19181
Bad Münstereifel,Germany,50.55,6.766667,19166
Kaltenkirchen,Germany,53.833333,9.966667,19161
Parchim,Germany,53.433333,11.85,19146
Laupheim,Germany,48.233333,9.883333,19111
Alzenau,Germany,50.083333,9.066667,19083
Dillingen,Germany,48.566667,10.483333,19013
Bremervörde,Germany,53.483333,9.133333,18983
Gerlingen,Germany,48.8,9.066667,18977
Hemmingen,Germany,52.316667,9.75,18956
Bönen,Germany,51.6,7.766667,18950
Lauchhammer,Germany,51.5,13.8,18948
Schifferstadt,Germany,49.387222,8.374722,18933
Torgau,Germany,51.566667,13,18883
Sulzbach,Germany,49.3,7.066667,18802
Schwalbach,Germany,49.3,6.816667,18801
Wadgassen,Germany,49.266667,6.783333,18787
Rhede,Germany,51.833333,6.7,18774
Bad Dürkheim,Germany,49.468611,8.166389,18751
Dingolfing,Germany,48.633333,12.5,18733
Finsterwalde,Germany,51.633333,13.716667,18733
Marktoberdorf,Germany,47.783333,10.616667,18701
Bad Münder,Germany,52.2,9.466667,18692
Langen,Germany,53.616667,8.6,18685
Kreuzau,Germany,50.75,6.483333,18670
Schramberg,Germany,48.233333,8.383333,18637
Aue,Germany,50.583333,12.7,18630
Lahnstein,Germany,50.3,7.616667,18572
Sarstedt,Germany,52.233333,9.85,18555
Donauwörth,Germany,48.7,10.8,18550
Radeberg,Germany,51.116667,13.916667,18529
Müllheim,Germany,47.811248,7.6285,18518
Borna,Germany,51.116667,12.5,18504
Kolbermoor,Germany,47.85,12.066667,18488
Neufahrn,Germany,48.316667,11.666667,18487
Finnentrop,Germany,51.166667,7.966667,18466
Vellmar,Germany,51.35,9.466667,18464
Freudenberg,Germany,50.9,7.866667,18440
Pfullingen,Germany,48.45,9.233333,18426
Schwarzenberg,Germany,50.55,12.783333,18406
Eppelborn,Germany,49.4,6.966667,18400
Mölln,Germany,53.633333,10.683333,18396
Burghausen,Germany,48.166667,12.833333,18376
Tettnang,Germany,47.666667,9.6,18365
Marktredwitz,Germany,50.005,12.081111,18359
Korntal-Münchingen,Germany,48.816667,9.116667,18358
Kronach,Germany,50.233333,11.316667,18349
Nidda,Germany,50.416667,9,18335
Illingen,Germany,49.366667,7.05,18312
Kleinmachnow,Germany,52.4,13.25,18306
Kierspe,Germany,51.133333,7.583333,18281
Wildeshausen,Germany,52.9,8.433333,18276
Traunstein,Germany,47.883333,12.65,18275
Angermünde,Germany,53.033333,14,18200
Uetersen,Germany,53.683333,9.666667,18155
Kamenz,Germany,51.266667,14.1,18122
Munster,Germany,52.983333,10.083333,18090
Bad Wildungen,Germany,51.116667,9.116667,18078
Alsfeld,Germany,50.75,9.266667,17968
Schmalkalden,Germany,50.716667,10.45,17963
Karlsfeld,Germany,48.216667,11.466667,17958
Alzey,Germany,49.751667,8.116111,17945
Rüdersdorf,Germany,52.45,13.783333,17943
Mühldorf,Germany,48.25,12.533333,17940
Bad Aibling,Germany,47.866667,12,17926
Taufkirchen,Germany,48.05,11.616667,17922
Wittlich,Germany,49.983333,6.883333,17902
Schenefeld,Germany,53.6,9.816667,17887
Holzwickede,Germany,51.5,7.633333,17867
Lilienthal,Germany,53.133333,8.916667,17851
Reinheim,Germany,49.826944,8.836111,17839
Haar,Germany,48.1,11.733333,17810
Brakel,Germany,51.716667,9.183333,17782
Grimma,Germany,51.233333,12.716667,17780
Renningen,Germany,48.766667,8.933333,17725
Sinzig,Germany,50.55,7.25,17708
Halver,Germany,51.2,7.483333,17660
Kronberg,Germany,50.183333,8.5,17649
Meerane,Germany,50.85,12.466667,17646
Oerlinghausen,Germany,51.966667,8.666667,17555
Wörth,Germany,49.058056,8.248611,17507
Schmelz,Germany,49.433333,6.85,17494
Nümbrecht,Germany,50.9,7.55,17492
Moosburg,Germany,48.466667,11.933333,17394
Cham,Germany,49.225556,12.663611,17393
Bad Tölz,Germany,47.766667,11.566667,17378
Michelstadt,Germany,49.673611,9.0025,17363
Schlüchtern,Germany,50.35,9.516667,17362
Schiffweiler,Germany,49.366667,7.133333,17356
Oberasbach,Germany,49.433333,10.95,17343
Blomberg,Germany,51.933333,9.083333,17295
Eutin,Germany,54.133333,10.616667,17258
Wadern,Germany,49.533333,6.883333,17236
Bendorf,Germany,50.433333,7.566667,17224
Gilching,Germany,48.116667,11.3,17204
Hochheim,Germany,50.016667,8.35,17203
Wolfratshausen,Germany,47.916667,11.416667,17190
Ribnitz-Damgarten,Germany,54.25,12.466667,17176
Selb,Germany,50.166667,12.133333,17172
Eilenburg,Germany,51.466667,12.616667,17120
Heilbad Heiligenstadt,Germany,51.383333,10.133333,17056
Sigmaringen,Germany,48.083333,9.216667,17023
Gescher,Germany,51.95,7.016667,16937
Diepholz,Germany,52.6,8.366667,16874
Eltville,Germany,50.033333,8.116667,16858
Schneeberg,Germany,50.6,12.633333,16833
Bad Reichenhall,Germany,47.733333,12.883333,16823
Frankenberg,Germany,50.916667,13.033333,16819
Stockach,Germany,47.85,9.016667,16800
Vilshofen,Germany,48.633333,13.183333,16800
Hilchenbach,Germany,50.983333,8.1,16784
Loxstedt,Germany,53.466667,8.65,16783
Seeheim-Jugenheim,Germany,49.765,8.651944,16776
Heidenau,Germany,50.983333,13.866667,16719
Neustadt,Germany,54.1,10.816667,16680
Gunzenhausen,Germany,49.1,10.75,16666
Illertissen,Germany,48.216667,10.1,16623
Hille,Germany,52.333333,8.75,16620
Königslutter,Germany,52.25,10.816667,16614
Bad Salzungen,Germany,50.816667,10.233333,16610
Boppard,Germany,50.233333,7.6,16606
Wassenberg,Germany,51.1,6.15,16603
Bobingen,Germany,48.266667,10.833333,16595
Kirchlengern,Germany,52.2,8.633333,16557
Babenhausen,Germany,49.966667,8.957778,16551
Weilerswist,Germany,50.766667,6.833333,16515
Hückeswagen,Germany,51.15,7.35,16499
Mittweida,Germany,50.983333,12.983333,16494
Bad Säckingen,Germany,47.55,7.95,16483
Hünfeld,Germany,50.666667,9.766667,16454
Stockelsdorf,Germany,53.9,10.65,16449
Kirchhain,Germany,50.816667,8.966667,16432
Losheim,Germany,49.516667,6.75,16418
Hohenstein-Ernstthal,Germany,50.8,12.716667,16416
Remagen,Germany,50.566667,7.233333,16360
Künzell,Germany,50.55,9.716667,16356
Hövelhof,Germany,51.816667,8.65,16349
Oschatz,Germany,51.3,13.116667,16348
Leopoldshöhe,Germany,52.016667,8.7,16324
Zehdenick,Germany,52.983333,13.333333,16310
Lohr,Germany,49.993611,9.578333,16297
Ginsheim-Gustavsburg,Germany,49.985833,8.3425,16283
Bad Neustadt,Germany,50.333333,10.216667,16268
Penzberg,Germany,47.75,11.383333,16243
Damme,Germany,52.516667,8.2,16236
Kelheim,Germany,48.916667,11.866667,16227
Brüggen,Germany,51.25,6.183333,16224
Rahden,Germany,52.433333,8.616667,16218
Bassum,Germany,52.85,8.733333,16204
Brake,Germany,53.333333,8.483333,16199
Hofgeismar,Germany,51.483333,9.4,16199
Wendlingen,Germany,48.683333,9.383333,16199
Bruckmühl,Germany,47.883333,11.916667,16178
Schrobenhausen,Germany,48.55,11.266667,16177
Grefrath,Germany,51.3,6.316667,16167
Vechelde,Germany,52.266667,10.383333,16165
Baiersbronn,Germany,48.5,8.383333,16156
Ebersbach,Germany,48.716667,9.533333,16143
Rehlingen-Siersburg,Germany,49.366667,6.683333,16121
Neuenhagen,Germany,52.533333,13.683333,16111
Wendelstein,Germany,49.353611,11.148333,16108
Glinde,Germany,53.55,10.2,16106
Bad Segeberg,Germany,53.933333,10.316667,16097
Erwitte,Germany,51.616667,8.35,16097
Halstenbek,Germany,53.633333,9.85,16074
Zerbst,Germany,51.966667,12.083333,16054
Bad Krozingen,Germany,47.916272,7.700622,16051
Freilassing,Germany,47.85,12.983333,16033
Ratekau,Germany,53.95,10.733333,16031
Wardenburg,Germany,53.066667,8.2,16019
Witzenhausen,Germany,51.333333,9.866667,16001
Uslar,Germany,51.666667,9.65,15982
Simmerath,Germany,50.6,6.3,15981
Beckingen,Germany,49.4,6.7,15959
Olsberg,Germany,51.35,8.5,15923
Blankenburg,Germany,51.783333,10.95,15887
Hettstedt,Germany,51.65,11.5,15876
Bad Essen,Germany,52.316667,8.333333,15858
Hude,Germany,53.116667,8.466667,15858
Weener,Germany,53.166667,7.35,15794
Königstein,Germany,50.183333,8.466667,15767
Niederkrüchten,Germany,51.2,6.216667,15697
Ober-Ramstadt,Germany,49.833611,8.751944,15695
Oyten,Germany,53.05,9.016667,15694
Ottweiler,Germany,49.383333,7.166667,15692
Neu-Anspach,Germany,50.316667,8.5,15609
Marienberg,Germany,50.65,13.166667,15600
Spenge,Germany,52.133333,8.483333,15569
Preetz,Germany,54.233333,10.283333,15540
Odenthal,Germany,51.033333,7.116667,15537
Straelen,Germany,51.45,6.266667,15531
Eberbach,Germany,49.469444,8.992778,15526
Freiberg,Germany,48.933333,9.2,15517
Bitterfeld,Germany,51.616667,12.316667,15486
Riegelsberg,Germany,49.3,6.933333,15476
Holzkirchen,Germany,47.883333,11.7,15459
Dieburg,Germany,49.898889,8.844444,15452
Bad Bentheim,Germany,52.316667,7.166667,15436
Garching,Germany,48.25,11.65,15380
Bürstadt,Germany,49.643611,8.46,15365
Marbach,Germany,48.933333,9.25,15353
Ascheberg,Germany,51.783333,7.616667,15327
Much,Germany,50.916667,7.4,15327
Schwarzenbek,Germany,53.5,10.483333,15310
Pritzwalk,Germany,53.15,12.183333,15286
Bad Laasphe,Germany,50.933333,8.4,15268
Karlstadt,Germany,49.960278,9.772222,15247
Drensteinfurt,Germany,51.8,7.75,15234
Beverungen,Germany,51.666667,9.366667,15230
Eggenstein-Leopoldshafen,Germany,49.095278,8.390556,15222
Langwedel,Germany,52.966667,9.216667,15200
Gehrden,Germany,52.316667,9.6,15139
Lauda-Königshofen,Germany,49.565278,9.704167,15138
Künzelsau,Germany,49.281944,9.688889,15128
Trossingen,Germany,48.066667,8.65,15123
Bad Freienwalde,Germany,52.783333,14.033333,15108
Clausthal-Zellerfeld,Germany,51.8,10.333333,15082
Regenstauf,Germany,49.121667,12.129167,15078
Wurzen,Germany,51.366667,12.733333,15066
Bad Lippspringe,Germany,51.783333,8.816667,15054
Brackenheim,Germany,49.079722,9.065,15031
Lübben,Germany,51.95,13.9,14985
Burbach,Germany,50.75,8.083333,14984
Homberg,Germany,51.033333,9.4,14893
Oberndorf,Germany,48.283333,8.566667,14890
Stadtbergen,Germany,48.366667,10.85,14837
Herzberg,Germany,51.65,10.333333,14832
Pocking,Germany,48.4,13.316667,14816
Wiefelstede,Germany,53.25,8.116667,14816
Bebra,Germany,50.966667,9.8,14798
Fritzlar,Germany,51.133333,9.283333,14798
Markgröningen,Germany,48.9,9.066667,14766
Ismaning,Germany,48.233333,11.633333,14722
Niedernhausen,Germany,50.15,8.316667,14703
Taucha,Germany,51.383333,12.483333,14669
Lauterbach,Germany,50.633333,9.4,14665
Niederzier,Germany,50.883333,6.466667,14648
Eppelheim,Germany,49.4025,8.633056,14647
Spiesen-Elversberg,Germany,49.316667,7.133333,14633
Plochingen,Germany,48.716667,9.416667,14627
Quierschied,Germany,49.316667,7.05,14626
Bergen,Germany,54.416667,13.433333,14621
Winterberg,Germany,51.2,8.533333,14603
Bad Salzdetfurth,Germany,52.05,10,14590
Genthin,Germany,52.4,12.166667,14573
Gernsbach,Germany,48.766667,8.333333,14548
Anklam,Germany,53.866667,13.7,14533
Sassenberg,Germany,52,8.05,14507
Walldorf,Germany,49.306389,8.645278,14488
Münsingen,Germany,48.416667,9.5,14466
Isny,Germany,47.7,10.033333,14461
Schriesheim,Germany,49.477778,8.672778,14448
Bissendorf,Germany,52.233333,8.166667,14431
Schiffdorf,Germany,53.533333,8.65,14424
Langenau,Germany,48.5,10.1,14411
Kalkar,Germany,51.733333,6.3,14405
Murrhardt,Germany,48.966667,9.566667,14381
Malsch,Germany,48.883333,8.333333,14364
Grünberg,Germany,50.6,8.95,14360
Petersberg,Germany,50.566667,9.716667,14350
Hagen,Germany,52.2,7.983333,14349
Rotenburg,Germany,50.983333,9.716667,14346
Brühl,Germany,49.397222,8.533611,14344
Pegnitz,Germany,49.756389,11.545,14337
Aldenhoven,Germany,50.9,6.283333,14335
Sandhausen,Germany,49.342778,8.659167,14329
Neunkirchen,Germany,50.8,8,14295
Bad Wurzach,Germany,47.9,9.9,14288
Immenstadt,Germany,47.566667,10.216667,14282
Langerwehe,Germany,50.816667,6.35,14222
Mindelheim,Germany,48.05,10.483333,14221
Uhingen,Germany,48.7,9.583333,14220
Kelsterbach,Germany,50.066667,8.533333,14146
Ritterhude,Germany,53.183333,8.75,14143
Bargteheide,Germany,53.733333,10.266667,14123
Melsungen,Germany,51.133333,9.55,14122
Wennigsen,Germany,52.266667,9.583333,14122
Neckargemünd,Germany,49.392222,8.794167,14111
Breisach,Germany,48.032791,7.582937,14083
Jever,Germany,53.583333,7.9,14079
Schwalbach,Germany,50.15,8.533333,14074
Belm,Germany,52.3,8.133333,14073
Neuenkirchen,Germany,52.25,7.366667,14068
Steinheim,Germany,51.85,9.1,14059
Füssen,Germany,47.566667,10.7,14002
Grenzach-Wyhlen,Germany,47.552573,7.660567,13994
Raunheim,Germany,50.016667,8.45,13993
Linnich,Germany,50.983333,6.266667,13983
Solms,Germany,50.766667,9.6,13982
Rödental,Germany,50.283333,11.066667,13973
Schleiden,Germany,50.533333,6.466667,13972
Bad Soden-Salmünster,Germany,50.283333,9.366667,13960
Münster,Germany,49.922778,8.867778,13957
Mainburg,Germany,48.65,11.783333,13944
Edingen-Neckarhausen,Germany,49.457222,8.606389,13935
Bad Wörishofen,Germany,48.016667,10.6,13922
Bad Camberg,Germany,50.3,8.266667,13920
Hüllhorst,Germany,52.283333,8.666667,13913
Lohfelden,Germany,51.266667,9.533333,13910
Stein,Germany,49.416667,11.016667,13885
Saarwellingen,Germany,49.35,6.816667,13882
Rellingen,Germany,53.65,9.816667,13856
Brunsbüttel,Germany,53.9,9.15,13840
Weilburg,Germany,50.483333,8.25,13833
Sankt Georgen,Germany,48.133333,8.333333,13825
Leinefelde,Germany,51.383333,10.333333,13794
Zeulenroda,Germany,50.65,11.983333,13760
Schermbeck,Germany,51.683333,6.866667,13758
Biedenkopf,Germany,50.916667,8.533333,13736
Ratzeburg,Germany,53.7,10.766667,13719
Hünxe,Germany,51.65,6.783333,13707
Tostedt,Germany,53.283333,9.716667,13695
Borken,Germany,51.05,9.283333,13656
Marienheide,Germany,51.083333,7.533333,13645
Fallingbostel,Germany,52.866667,9.7,13639
Bergen,Germany,52.816667,9.966667,13586
Feucht,Germany,49.376667,11.213889,13585
Lichtenstein,Germany,50.75,12.65,13583
Bischofswerda,Germany,51.116667,14.183333,13577
Lotte,Germany,52.283333,7.916667,13564
Thale,Germany,51.75,11.05,13544
Eppstein,Germany,50.133333,8.4,13512
Erbach,Germany,49.656111,8.996389,13501
Pattensen,Germany,52.266667,9.766667,13496
Jüterbog,Germany,51.983333,13.083333,13483
Höchstadt,Germany,49.7,10.8,13470
Sendenhorst,Germany,51.833333,7.833333,13469
Usingen,Germany,50.333333,8.533333,13469
Nordstemmen,Germany,52.166667,9.783333,13436
Bohmte,Germany,52.366667,8.316667,13432
Dorfen,Germany,48.266667,12.15,13425
Lich,Germany,50.516667,8.833333,13410
Hessisch Lichtenau,Germany,51.2,9.716667,13394
Perleberg,Germany,53.066667,11.866667,13394
Denzlingen,Germany,48.066667,7.883333,13388
Bovenden,Germany,51.583333,9.933333,13376
Hatten,Germany,53.016667,8.35,13342
Büttelborn,Germany,49.903333,8.523333,13326
Löningen,Germany,52.733333,7.766667,13315
Schöningen,Germany,52.133333,10.95,13313
Stollberg,Germany,50.716667,12.8,13304
Bad Bramstedt,Germany,53.916667,9.883333,13303
Pfullendorf,Germany,47.916667,9.25,13278
Tauberbischofsheim,Germany,49.624722,9.662778,13276
Tholey,Germany,49.483333,7.066667,13266
Wolfhagen,Germany,51.316667,9.166667,13265
Hösbach,Germany,50,9.2,13258
Burladingen,Germany,48.283333,9.116667,13249
Eching,Germany,48.3,11.616667,13247
Herbrechtingen,Germany,48.616667,10.183333,13244
Erbach,Germany,48.333333,9.883333,13238
Velen,Germany,51.9,6.983333,13236
Langelsheim,Germany,51.933333,10.333333,13234
Grünstadt,Germany,49.569167,8.168056,13219
Wadersloh,Germany,51.733333,8.25,13212
Schwabmünchen,Germany,48.183333,10.75,13209
Treuchtlingen,Germany,48.95,10.916667,13208
Lengede,Germany,52.2,10.3,13196
Wiesmoor,Germany,53.416667,7.733333,13180
Quakenbrück,Germany,52.683333,7.95,13170
Monschau,Germany,50.55,6.25,13167
Eichstätt,Germany,48.883333,11.183333,13166
Bitburg,Germany,49.966667,6.533333,13154
Welver,Germany,51.616667,7.966667,13142
Meckenbeuren,Germany,47.7,9.566667,13121
Schmölln,Germany,50.9,12.366667,13118
Vöhringen,Germany,48.283333,10.083333,13092
Kirchhundem,Germany,51.1,8.1,13059
Neubiberg,Germany,48.083333,11.683333,13057
Tornesch,Germany,53.7,9.716667,13045
Wehr,Germany,47.633333,7.9,13042
Landau,Germany,48.683333,12.683333,13026
Trebur,Germany,49.931111,8.416111,13016
Bad Urach,Germany,48.5,9.4,13007
Altötting,Germany,48.233333,12.683333,12998
Gräfelfing,Germany,48.1,11.45,12992
Eggenfelden,Germany,48.4,12.766667,12988
Alpen,Germany,51.583333,6.516667,12970
Hilpoltstein,Germany,49.19,11.188611,12968
Ketsch,Germany,49.367778,8.531111,12960
Kleinblittersdorf,Germany,49.15,7.033333,12940
Ubstadt-Weiher,Germany,49.170833,8.618889,12939
Sulingen,Germany,52.683333,8.8,12905
Östringen,Germany,49.22,8.712222,12887
Plön,Germany,54.166667,10.416667,12876
Mettingen,Germany,52.316667,7.783333,12869
Hungen,Germany,50.466667,8.9,12844
Edemissen,Germany,52.383333,10.266667,12838
Sulz,Germany,48.366667,8.65,12834
Lorsch,Germany,49.654722,8.568611,12829
Lappersdorf,Germany,49.056944,12.09,12817
Cremlingen,Germany,52.25,10.65,12811
Kaufungen,Germany,51.281111,9.618611,12804
Dinklage,Germany,52.65,8.116667,12802
Ihlow,Germany,51.883333,13.333333,12757
Haselünne,Germany,52.666667,7.483333,12748
Mettlach,Germany,49.5,6.6,12705
Markdorf,Germany,47.716667,9.4,12701
Gaildorf,Germany,49.003889,9.771111,12683
Wickede,Germany,51.483333,7.866667,12681
Twistringen,Germany,52.8,8.65,12675
Bopfingen,Germany,48.85,10.35,12669
Bad Dürrheim,Germany,48.016667,8.533333,12668
Wernau,Germany,48.7,9.416667,12668
Zella-Mehlis,Germany,50.65,10.65,12664
Langenselbold,Germany,50.183333,9.033333,12652
Neutraubling,Germany,48.983333,12.2,12645
Schongau,Germany,47.816667,10.9,12634
Asperg,Germany,48.9,9.116667,12627
Maisach,Germany,48.216667,11.266667,12623
Friesenheim,Germany,49.498333,8.422778,12616
Gladenbach,Germany,50.766667,8.566667,12613
Regen,Germany,48.966667,13.133333,12591
Plattling,Germany,48.783333,12.866667,12590
Zeven,Germany,53.3,9.283333,12577
Mutterstadt,Germany,49.441389,8.356111,12565
Rommerskirchen,Germany,51.033333,6.683333,12554
Abensberg,Germany,48.816667,11.85,12543
Wasserburg,Germany,48.066667,12.233333,12539
Wolgast,Germany,54.05,13.766667,12539
Krumbach,Germany,48.25,10.366667,12518
Montabaur,Germany,50.433333,7.833333,12518
Garrel,Germany,52.95,8.016667,12515
Burgstädt,Germany,50.916667,12.816667,12506
Hersbruck,Germany,49.5125,11.433889,12506
Neuenrade,Germany,51.283333,7.783333,12505
Wächtersbach,Germany,50.266667,9.3,12497
Hauzenberg,Germany,48.65,13.633333,12471
Neustadt,Germany,49.583333,10.6,12470
Grafing,Germany,48.05,11.966667,12469
Olfen,Germany,51.7,7.4,12450
Hemsbach,Germany,49.591667,8.646389,12442
Drolshagen,Germany,51.016667,7.766667,12438
Mering,Germany,48.266667,10.983333,12437
Zwönitz,Germany,50.633333,12.8,12424
Hildburghausen,Germany,50.416667,10.75,12422
Oberhaching,Germany,48.033333,11.6,12416
Erlensee,Germany,50.15,8.95,12407
Gerstetten,Germany,48.633333,10.033333,12407
Drochtersen,Germany,53.7,9.383333,12404
Philippsburg,Germany,49.235833,8.456389,12403
Harsum,Germany,52.216667,9.966667,12401
Wittingen,Germany,52.733333,10.716667,12401
Barsbüttel,Germany,53.566667,10.166667,12395
Mömbris,Germany,50.066667,9.166667,12393
Ottersberg,Germany,53.1,9.15,12392
Altenstadt,Germany,50.283333,8.95,12388
Tamm,Germany,48.916667,9.116667,12327
Ilsede,Germany,52.266667,10.2,12326
Niefern-Öschelbronn,Germany,48.916667,8.783333,12299
Balve,Germany,51.333333,7.866667,12288
Demmin,Germany,53.9,13.033333,12263
Spaichingen,Germany,48.083333,8.716667,12258
Issum,Germany,51.533333,6.433333,12257
Hagenow,Germany,53.433333,11.183333,12253
Langgöns,Germany,50.5,8.666667,12251
Havixbeck,Germany,51.983333,7.416667,12249
Bretzfeld,Germany,49.179444,9.438333,12223
Murnau,Germany,47.683333,11.2,12223
Ludwigslust,Germany,53.316667,11.5,12209
Feuchtwangen,Germany,49.166667,10.333333,12207
Herzberg,Germany,51.683333,13.233333,12188
Überherrn,Germany,49.25,6.7,12145
Sankt Leon-Rot,Germany,49.266389,8.616667,12143
Aerzen,Germany,52.033333,9.266667,12114
Bischofsheim,Germany,49.993889,8.367222,12114
Fuldatal,Germany,51.383333,9.566667,12102
Brand-Erbisdorf,Germany,50.866667,13.333333,12098
Burglengenfeld,Germany,49.205556,12.041389,12098
Titisee-Neustadt,Germany,47.9,8.166667,12092
Röthenbach,Germany,49.485,11.2475,12084
Kall,Germany,50.55,6.55,12074
Pasewalk,Germany,53.516667,13.983333,12059
Peiting,Germany,47.8,10.933333,12048
Zetel,Germany,53.416667,7.983333,12037
Bad Windsheim,Germany,49.5,10.416667,12033
Pfarrkirchen,Germany,48.433333,12.933333,12029
Zschopau,Germany,50.75,13.066667,12016
Osterhofen,Germany,48.7,13.016667,12010
Rielasingen-Worblingen,Germany,47.733333,8.833333,12006
Buchloe,Germany,48.033333,10.733333,11997
Kirchheim,Germany,48.183333,11.75,11982
Glückstadt,Germany,53.783333,9.416667,11976
Scharbeutz,Germany,54.033333,10.75,11973
Walldürn,Germany,49.583333,9.366667,11960
Geisenheim,Germany,49.983333,7.966667,11959
Ettenheim,Germany,48.25,7.816667,11956
Teningen,Germany,48.133333,7.816667,11939
Weinsberg,Germany,49.150278,9.288333,11910
Werther,Germany,52.066667,8.416667,11910
Blaubeuren,Germany,48.4,9.783333,11900
Jork,Germany,53.533333,9.683333,11878
Recke,Germany,52.383333,7.716667,11867
Erkner,Germany,52.416667,13.75,11866
Schalksmühle,Germany,51.233333,7.533333,11859
Rosdorf,Germany,51.5,9.9,11844
Kronshagen,Germany,54.333333,10.083333,11826
Bestwig,Germany,51.366667,8.4,11819
Bad Lauterberg,Germany,51.65,10.466667,11813
Schöneiche,Germany,52.216667,13.516667,11812
Hammelburg,Germany,50.116667,9.9,11798
Lauenburg,Germany,53.366667,10.566667,11796
Dossenheim,Germany,49.450278,8.674722,11794
Bad Iburg,Germany,52.15,8.05,11790
Linkenheim-Hochstetten,Germany,49.137222,8.403333,11783
Nörvenich,Germany,50.8,6.65,11778
Gardelegen,Germany,52.533333,11.366667,11771
Schüttorf,Germany,52.316667,7.233333,11762
Morsbach,Germany,50.866667,7.75,11743
Durmersheim,Germany,48.933333,8.266667,11742
Altdorf,Germany,48.15,12.183333,11709
Velten,Germany,52.683333,13.183333,11697
Graben-Neudorf,Germany,49.170278,8.487778,11683
Rosbach,Germany,50.8,7.616667,11674
Heddesheim,Germany,49.505556,8.603611,11673
Besigheim,Germany,48.983333,9.133333,11667
Calbe,Germany,51.9,11.766667,11666
Lehre,Germany,52.333333,10.666667,11664
Rudersberg,Germany,48.883333,9.533333,11651
Gangelt,Germany,50.983333,6,11647
Münchberg,Germany,50.2,11.783333,11646
Trostberg,Germany,48.033333,12.55,11640
Ladenburg,Germany,49.475,8.606944,11621
Eisenberg,Germany,50.966667,11.9,11616
Burgthann,Germany,49.35,11.3,11615
Eichenau,Germany,48.166667,11.316667,11614
Lindenberg,Germany,47.6,9.9,11614
Möhnesee,Germany,51.5,8.133333,11612
Harrislee,Germany,54.8,9.383333,11600
Bad Dürrenberg,Germany,51.3,12.066667,11587
Dinkelsbühl,Germany,49.066667,10.316667,11581
Billerbeck,Germany,51.966667,7.3,11578
Schotten,Germany,50.5,9.133333,11570
Holzgerlingen,Germany,48.633333,9.016667,11567
Neuhausen,Germany,48.683333,9.283333,11566
Gemünden,Germany,50.05,9.7,11560
Bad Sassendorf,Germany,51.583333,8.166667,11552
Neuenburg,Germany,47.813418,7.563494,11538
Vilsbiburg,Germany,48.45,12.35,11538
Ochsenfurt,Germany,49.65,10.083333,11531
Vienenburg,Germany,51.95,10.566667,11518
Hirschaid,Germany,49.819444,10.990833,11514
Ergolding,Germany,48.583333,12.166667,11513
Lorch,Germany,48.8,9.683333,11503
Poing,Germany,48.166667,11.816667,11498
Steinheim,Germany,48.966667,9.283333,11493
Gundelfingen,Germany,48.05,7.866667,11475
Geeste,Germany,52.6,7.266667,11456
Rodenbach,Germany,50.15,9.033333,11455
Rüthen,Germany,51.483333,8.45,11453
Lügde,Germany,51.95,9.25,11448
Wald-Michelbach,Germany,49.57,8.831667,11447
Westerkappeln,Germany,52.316667,7.883333,11443
Marpingen,Germany,49.45,7.05,11439
Gärtringen,Germany,48.65,8.9,11438
Neuhof,Germany,50.433333,9.616667,11437
Raesfeld,Germany,51.766667,6.85,11430
Roding,Germany,49.196389,12.518611,11428
Flöha,Germany,50.866667,13.066667,11427
Friedrichsthal,Germany,49.316667,7.1,11425
Bad Wildbad,Germany,48.75,8.55,11411
Raubling,Germany,47.783333,12.1,11403
Braunfels,Germany,50.516667,8.4,11398
Stelle,Germany,53.383333,10.116667,11396
Miesbach,Germany,47.783333,11.833333,11394
Bad Doberan,Germany,54.1,11.9,11373
Lichtenau,Germany,51.616667,8.9,11350
Waltershausen,Germany,50.9,10.566667,11345
Bockenem,Germany,52.016667,10.133333,11328
Kyritz,Germany,52.95,12.4,11321
Dassel,Germany,51.8,9.683333,11319
Manching,Germany,48.716667,11.5,11297
Welzheim,Germany,48.883333,9.65,11286
Isselburg,Germany,51.833333,6.466667,11274
Niesky,Germany,51.3,14.816667,11260
Bad Schwalbach,Germany,50.133333,8.066667,11259
Markt Schwaben,Germany,48.2,11.883333,11251
Meitingen,Germany,48.55,10.85,11245
Felsberg,Germany,51.133333,9.416667,11244
Olbernhau,Germany,50.666667,13.333333,11206
Steinau,Germany,50.316667,9.466667,11199
Lauffen,Germany,49.074444,9.146944,11191
Morbach,Germany,49.816667,7.116667,11184
Rehburg-Loccum,Germany,52.466667,9.2,11180
Premnitz,Germany,52.533333,12.333333,11176
Grünwald,Germany,48.05,11.516667,11173
Rosendahl,Germany,51.766667,7.95,11132
Sinzheim,Germany,48.766667,8.166667,11131
Altensteig,Germany,48.583333,8.6,11122
Bad Gandersheim,Germany,51.866667,10.033333,11100
Apen,Germany,53.216667,7.8,11093
Ebersberg,Germany,48.083333,11.966667,11082
Nideggen,Germany,50.7,6.483333,11075
Kissing,Germany,48.3,10.983333,11072
Wolnzach,Germany,48.6,11.616667,11071
Haigerloch,Germany,48.366667,8.8,11066
Diez,Germany,50.366667,8.016667,11065
Laichingen,Germany,48.5,9.683333,11063
Donzdorf,Germany,48.683333,9.816667,11038
Gengenbach,Germany,48.4,8.016667,11035
Schwaigern,Germany,49.143889,9.055,11032
Marktheidenfeld,Germany,49.844167,9.603889,11023
Essenbach,Germany,48.616667,12.216667,11013
Gaimersheim,Germany,48.816667,11.366667,10998
Grevesmühlen,Germany,53.866667,11.183333,10993
Lauingen,Germany,48.566667,10.433333,10991
Anröchte,Germany,51.566667,8.333333,10981
Ueckermünde,Germany,53.733333,14.05,10951
Rheinau,Germany,48.866667,8.2,10885
Lahstedt,Germany,52.25,10.216667,10882
Bad Liebenwerda,Germany,51.516667,13.4,10880
Hasbergen,Germany,52.233333,7.933333,10863
Friedeburg,Germany,53.45,7.833333,10822
Burgkirchen,Germany,48.166667,12.733333,10795
Merchweiler,Germany,49.35,7.05,10795
Reiskirchen,Germany,50.6,8.833333,10771
Langenzenn,Germany,49.5,10.8,10767
Grimmen,Germany,54.1,13.05,10764
Werneck,Germany,49.983333,10.1,10764
Visselhövede,Germany,52.983333,9.6,10757
Limburgerhof,Germany,49.424444,8.391944,10750
Malente,Germany,54.183333,10.566667,10731
Leutenbach,Germany,48.883333,9.4,10718
Waldkirchen,Germany,48.733333,13.6,10716
Eningen,Germany,48.483333,9.25,10715
Salzhemmendorf,Germany,52.066667,9.616667,10709
Eichenzell,Germany,50.483333,9.7,10708
Böhl-Iggelheim,Germany,49.380556,8.303889,10694
Planegg,Germany,48.1,11.416667,10669
Blumberg,Germany,47.833333,8.533333,10666
Nohfelden,Germany,49.583333,7.15,10666
Neustadt,Germany,51.033333,14.216667,10649
Kirchlinteln,Germany,52.95,9.316667,10644
Boizenburg,Germany,53.383333,10.716667,10634
Betzdorf,Germany,50.783333,7.883333,10615
Maxhütte-Haidhof,Germany,49.2025,12.098056,10610
Kriftel,Germany,50.083333,8.483333,10590
Wolmirstedt,Germany,52.25,11.633333,10589
Mörlenbach,Germany,49.599167,8.734722,10566
Torgelow,Germany,53.633333,14.016667,10551
Kirkel,Germany,49.283333,7.233333,10509
Zwiesel,Germany,49.016667,13.233333,10484
Friedland,Germany,51.416667,9.933333,10472
Riedlingen,Germany,48.15,9.466667,10466
Möglingen,Germany,48.883333,9.133333,10460
Bogen,Germany,48.916667,12.683333,10458
Kümmersbruck,Germany,49.419167,11.888333,10458
Birkenfeld,Germany,48.866667,8.633333,10444
Herxheim,Germany,49.509167,8.179167,10443
Mülheim-Kärlich,Germany,50.383333,7.5,10414
Birkenau,Germany,49.5625,8.706944,10406
Weeze,Germany,51.633333,6.2,10371
Diedorf,Germany,48.35,10.766667,10348
Kolkwitz,Germany,51.75,14.25,10336
Bad Nenndorf,Germany,52.333333,9.366667,10323
Wunsiedel,Germany,50.033333,12.016667,10319
Hilter,Germany,52.15,8.15,10312
Schwieberdingen,Germany,48.883333,9.066667,10308
Korb,Germany,48.85,9.366667,10305
Rehau,Germany,50.25,12.033333,10279
Augustdorf,Germany,51.9,8.733333,10275
Prien,Germany,47.866667,12.333333,10264
Laubach,Germany,50.55,8.983333,10262
Schlitz,Germany,50.666667,9.566667,10248
Weil im Schönbuch,Germany,48.616667,9.066667,10245
Gottmadingen,Germany,47.733333,8.783333,10242
Oftersheim,Germany,49.365278,8.583056,10228
Steinbach,Germany,50.166667,8.566667,10223
Lollar,Germany,50.65,8.7,10206
Engen,Germany,47.85,8.766667,10195
Cadolzburg,Germany,49.45,10.866667,10188
Wildberg,Germany,48.633333,8.75,10186
Feldkirchen-Westerham,Germany,47.9,11.85,10177
Rutesheim,Germany,48.8,8.95,10175
Heubach,Germany,48.783333,9.933333,10164
Mengen,Germany,48.05,9.333333,10155
Obernkirchen,Germany,52.266667,9.133333,10155
Schönaich,Germany,48.65,9.066667,10145
Höchst,Germany,49.799722,8.999444,10143
Bobenheim-Roxheim,Germany,49.5875,8.357778,10129
Denkendorf,Germany,48.683333,9.316667,10096
Erlenbach,Germany,49.803889,9.163889,10095
Altusried,Germany,47.8,10.216667,10084
Büdelsdorf,Germany,54.316667,9.683333,10060
Bad Orb,Germany,50.216667,9.35,10051
Goldbach,Germany,49.988889,9.186389,10038
Steinen,Germany,47.647177,7.741135,10038
Simbach,Germany,48.266667,13.016667,10015
Eisenberg,Germany,49.565833,8.07,9970
Meuselwitz,Germany,51.05,12.3,9953
Adendorf,Germany,53.283333,10.45,9917
Höhr-Grenzhausen,Germany,50.433333,7.666667,9906
Oberstdorf,Germany,47.4,10.283333,9895
Wallerfangen,Germany,49.333333,6.716667,9880
Köngen,Germany,48.683333,9.366667,9879
Falkenstein,Germany,50.483333,12.366667,9859
Ainring,Germany,47.816667,12.95,9852
Töging,Germany,48.25,12.583333,9830
Borgentreich,Germany,51.566667,9.25,9813
Stephanskirchen,Germany,47.85,12.183333,9812
Rüdesheim,Germany,49.983333,7.916667,9811
Dörverden,Germany,52.85,9.233333,9805
Kappeln,Germany,54.666667,9.933333,9801
Runkel,Germany,50.4,8.166667,9794
Furtwangen,Germany,48.05,8.2,9763
Lüchow,Germany,52.966667,11.15,9763
Altenholz,Germany,54.4,10.133333,9721
Elsterwerda,Germany,51.45,13.533333,9714
Miltenberg,Germany,49.703889,9.264444,9706
Egelsbach,Germany,49.971111,8.670278,9703
Plüderhausen,Germany,48.8,9.6,9697
Elze,Germany,52.116667,9.733333,9686
Tangermünde,Germany,52.55,11.95,9686
Teterow,Germany,53.783333,12.566667,9683
Ostercappeln,Germany,52.35,8.233333,9677
Barntrup,Germany,51.983333,9.116667,9666
Bad Liebenzell,Germany,48.766667,8.733333,9665
Liebenburg,Germany,52.016667,10.45,9649
Weilmünster,Germany,50.433333,8.366667,9637
Hainichen,Germany,50.966667,13.116667,9628
Nalbach,Germany,49.383333,6.783333,9616
Oberhausen-Rheinhausen,Germany,49.273889,8.471667,9580
Worpswede,Germany,53.216667,8.933333,9580
Kirchzarten,Germany,47.966667,7.95,9575
Barmstedt,Germany,53.783333,9.766667,9558
Helmbrechts,Germany,50.233333,11.7,9539
Bad Laer,Germany,52.1,8.083333,9514
Tecklenburg,Germany,52.216667,7.833333,9510
Bad Ems,Germany,50.333333,7.716667,9468
Wahlstedt,Germany,53.95,10.216667,9462
Querfurt,Germany,51.383333,11.6,9436
Gernsheim,Germany,49.76,8.495833,9435
Wetter,Germany,50.9,8.716667,9430
Volkach,Germany,49.866667,10.233333,9424
Tutzing,Germany,47.916667,11.283333,9411
Lenggries,Germany,47.683333,11.566667,9409
Furth im Wald,Germany,49.309722,12.84,9400
Schieder-Schwalenberg,Germany,51.883333,9.183333,9382
Tirschenreuth,Germany,49.8825,12.333056,9379
Sebnitz,Germany,50.966667,14.283333,9359
Kirchen,Germany,50.8,7.883333,9354
Aken,Germany,51.85,12.05,9350
Barth,Germany,54.366667,12.733333,9344
Heiligenhafen,Germany,54.366667,10.983333,9328
Plankstadt,Germany,49.394444,8.596111,9300
Elsfleth,Germany,53.233333,8.466667,9286
Dettingen,Germany,48.533333,9.35,9282
Grafenau,Germany,48.85,13.4,9180
Waldheim,Germany,51.066667,13.016667,9150
Neustadt,Germany,50.733333,11.75,9142
Bad Frankenhausen,Germany,51.35,11.1,9102
Fuldabrück,Germany,51.266667,9.483333,9098
Timmendorfer Strand,Germany,54,10.783333,9090
Ebersbach,Germany,51.016667,14.583333,9056
Vallendar,Germany,50.4,7.616667,9055
Klingenthal,Germany,50.366667,12.466667,8984
Bad Sooden-Allendorf,Germany,51.283333,9.983333,8955
Westerland,Germany,54.9,8.3,8927
Frickenhausen,Germany,48.6,9.366667,8917
Kirn,Germany,49.783333,7.45,8879
Biblis,Germany,49.691667,8.458611,8824
Bad Bevensen,Germany,53.083333,10.583333,8808
Coswig,Germany,51.883333,12.45,8729
Hermsdorf,Germany,50.9,11.866667,8728
Sontra,Germany,51.066667,9.933333,8618
Dannenberg,Germany,53.1,11.1,8612
Beeskow,Germany,52.166667,14.25,8547
Malchin,Germany,53.733333,12.783333,8413
Dornstadt,Germany,48.466667,9.95,8374
Weida,Germany,50.766667,12.066667,8355
Naila,Germany,50.316667,11.7,8349
Bad Sachsa,Germany,51.6,10.55,8245
Bützow,Germany,53.85,11.983333,8163
Gröditz,Germany,51.416667,13.45,8086
Gräfenhainichen,Germany,51.733333,12.45,8026
Lugau,Germany,50.733333,12.75,7779
Thalheim,Germany,50.7,12.85,7622
Osterburg,Germany,52.783333,11.766667,7255
Leuna,Germany,51.316667,12.016667,7100
Schwarzenbach,Germany,50.216667,11.933333,5074
