City,Country,Lat,Long,Pop
Vilnius,Lithuania,54.6833333,25.3166667,542381
Kaunas,Lithuania,54.9,23.9,374655
Klaipeda,Lithuania,55.7172222,21.1175,192314
Siauliai,Lithuania,55.9333333,23.3166667,130594
Panevezys,Lithuania,55.7333333,24.35,117400
Alytus,Lithuania,54.4,24.05,70750
Marijampole,Lithuania,54.5666667,23.35,47617
Mazeikiai,Lithuania,56.3166667,22.3333333,41314
Jonava,Lithuania,55.0833333,24.2833333,34996
Utena,Lithuania,55.5,25.6,33243
Kedainiai,Lithuania,55.2883333,23.9747222,31983
Telsiai,Lithuania,55.9813889,22.2472222,30101
Ukmerge,Lithuania,55.25,24.75,28662
Visaginas,Lithuania,55.6,26.4166667,28350
Taurage,Lithuania,55.2522222,22.2897222,27665
Plunge,Lithuania,55.9113889,21.8441667,23383
Kretinga,Lithuania,55.8166667,21.2,22238
Silute,Lithuania,55.3488889,21.4830556,21762
Radviliskis,Lithuania,55.8166667,23.5333333,19916
Palanga,Lithuania,55.9175,21.0686111,17798
Druskininkai,Lithuania,54.0166667,23.9666667,17793
Rokiskis,Lithuania,55.9666667,25.5833333,16257
Gargzdai,Lithuania,55.7127778,21.4033333,15951
Birzai,Lithuania,56.2,24.75,14912
Kursenai,Lithuania,55.985,22.9188889,13915
Garliava,Lithuania,54.8166667,23.8666667,13811
Elektrenai,Lithuania,54.7666667,24.6333333,13722
Jurbarkas,Lithuania,55.0777778,22.7663889,13103
Vilkaviskis,Lithuania,54.6516667,23.0322222,13012
Raseiniai,Lithuania,55.3736111,23.1216667,12525
Naujoji Akmene,Lithuania,56.3166667,22.9,11923
Lentvaris,Lithuania,54.65,25.05,11589
Anyksciai,Lithuania,55.5333333,25.1,11570
Grigiskes,Lithuania,54.6833333,25.0833333,11556
Prienai,Lithuania,54.6333333,23.95,11353
Joniskis,Lithuania,56.2402778,23.6152778,11114
Kelme,Lithuania,55.6338889,22.9341667,10627
Varena,Lithuania,54.2166667,24.5666667,10305
Kaisiadorys,Lithuania,54.8666667,24.45,9868
Pasvalys,Lithuania,56.0594444,24.4036111,8511
Kupiskis,Lithuania,55.8333333,24.9666667,8264
Zarasai,Lithuania,55.7333333,26.25,8096
Skuodas,Lithuania,56.2666667,21.5333333,7726
Sirvintos,Lithuania,55.05,24.95,7322
Kazlu Ruda,Lithuania,54.7666667,23.5,7248
Moletai,Lithuania,55.2333333,25.4166667,7243
Salcininkai,Lithuania,54.3,25.3833333,6892
Svencioneliai,Lithuania,55.1666667,26,6791
Sakiai,Lithuania,54.95,23.05,6614
Ignalina,Lithuania,55.35,26.1666667,6422
Pabrade,Lithuania,55,25.7833333,6376
Kybartai,Lithuania,54.6355556,22.7383333,6355
Nemencine,Lithuania,54.85,25.4833333,6063
Silale,Lithuania,55.4905556,22.1813889,6026
Pakruojis,Lithuania,55.9666667,23.8666667,5964
Svencionys,Lithuania,55.15,26.1666667,5539
Trakai,Lithuania,54.6333333,24.9333333,5531
Vievis,Lithuania,54.7666667,24.8,5269
Lazdijai,Lithuania,54.2333333,23.5166667,4975
Kalvarija,Lithuania,54.4,23.2333333,4876
Ziezmariai,Lithuania,54.8,24.45,4061
Eisiskes,Lithuania,54.1666667,25,3810
Rietavas,Lithuania,55.7194444,21.9311111,3737
Ariogala,Lithuania,55.2666667,23.4666667,3653
Seduva,Lithuania,55.7666667,23.7666667,3321
Venta,Lithuania,56.2,22.7,3270
Birstonas,Lithuania,54.6166667,24.0333333,3181
Akmene,Lithuania,56.25,22.75,3026
Tytuvenai,Lithuania,55.6,23.2,2770
Rudiskes,Lithuania,54.5166667,24.8333333,2616
Rusne,Lithuania,55.2961111,21.3133333,2484
Neringa,Lithuania,55.3080556,21.0066667,2380
Pagegiai,Lithuania,55.1380556,21.9088889,2363
Vilkija,Lithuania,55.05,23.5833333,2289
Vieksniai,Lithuania,56.2333333,22.5166667,2212
Zagare,Lithuania,56.3591667,23.25,2201
Ezerelis,Lithuania,54.8833333,23.6166667,2051
Juodupe,Lithuania,56.0833333,25.6166667,1989
Skaudvile,Lithuania,55.4066667,22.5841667,1976
Kudirkos Naumiestis,Lithuania,54.7730556,22.8630556,1962
Simnas,Lithuania,54.4,23.65,1864
Gelgaudiskis,Lithuania,55.0791667,22.9758333,1839
Salantai,Lithuania,56.0666667,21.5666667,1829
Linkuva,Lithuania,56.0855556,23.9725,1720
Priekule,Lithuania,55.5536111,21.3266667,1711
Veisiejai,Lithuania,54.1,23.7,1654
Ramygala,Lithuania,55.5166667,24.3,1637
Joniskelis,Lithuania,56.0252778,24.1688889,1430
Kulautuva,Lithuania,54.9333333,23.6,1401
Jieznas,Lithuania,54.6,24.1666667,1390
Zemaiciu Naumiestis,Lithuania,55.3591667,21.7022222,1285
Virbalis,Lithuania,54.6266667,22.8169444,1281
Daugai,Lithuania,54.3666667,24.3333333,1279
Obeliai,Lithuania,55.9666667,25.15,1247
Varniai,Lithuania,55.7405556,22.3644444,1227
Seda,Lithuania,56.1666667,22.1,1224
Vabalninkas,Lithuania,55.9666667,24.75,1177
Subacius,Lithuania,55.7333333,24.7833333,1116
Baltoji Voke,Lithuania,54.6,25.2,1071
Dukstas,Lithuania,55.5333333,26.3333333,1021
Pandelys,Lithuania,56.0166667,25.2166667,974
Kacergine,Lithuania,54.9333333,23.65,897
Dusetos,Lithuania,55.75,25.85,833
Uzventis,Lithuania,55.7802778,22.6547222,827
Dotnuva,Lithuania,55.35,23.9,783
Naujamiestis,Lithuania,55.6833333,24.15,770
Kavarskas,Lithuania,55.4333333,24.9166667,755
Smalininkai,Lithuania,55.0755556,22.5797222,599
Pabirze,Lithuania,56.1858333,24.6366667,490
Troskunai,Lithuania,55.6,24.85,480
Tyruliai,Lithuania,55.75,23.25,373
Panemune,Lithuania,55.0933333,21.8919444,313
Turmantas,Lithuania,55.7,26.45,282
