City,Country,Lat,Long,Pop
Belgrade,Serbia,44.818611,20.468056,1115200
Pristina,Serbia,42.666667,21.166667,254023
Novi Sad,Serbia,45.251667,19.836944,194405
Nis,Serbia,43.324722,21.903333,173775
Prizren,Serbia,42.213889,20.739722,159145
Kragujevac,Serbia,44.016667,20.916667,149275
Subotica,Serbia,46.1,19.666667,99595
Urosevac,Serbia,42.370556,21.155278,94278
Pec,Serbia,42.66,20.292222,93161
Gnjilane,Serbia,42.468889,21.463333,88287
Kosovska Mitrovica,Serbia,42.883333,20.866667,84736
Zrenjanin,Serbia,45.383611,20.381944,79410
Pancevo,Serbia,44.870833,20.640278,77201
Cacak,Serbia,43.891389,20.349722,75062
Leskovac,Serbia,42.998056,21.946111,63683
Smederevo,Serbia,44.662778,20.93,63058
Valjevo,Serbia,44.270833,19.884167,62471
Kraljevo,Serbia,43.725833,20.689444,58140
Krusevac,Serbia,43.58,21.333889,57417
Vranje,Serbia,42.551389,21.900278,56199
Novi Pazar,Serbia,43.136667,20.512222,56028
Uzice,Serbia,43.855833,19.841111,55670
Sabac,Serbia,44.746667,19.69,55114
Sombor,Serbia,45.774167,19.112222,51607
Podujevo,Serbia,42.910556,21.193056,46513
Pozarevac,Serbia,44.615278,21.1825,42057
Kikinda,Serbia,45.829722,20.465278,41704
Pirot,Serbia,43.153056,22.586111,40928
Zajecar,Serbia,43.904167,22.284722,39849
Bor,Serbia,44.078333,22.095278,39388
Sremska Mitrovica,Serbia,44.976389,19.612222,39286
Borca,Serbia,44.870278,20.458611,37844
Vrsac,Serbia,45.116667,21.303611,36036
Jagodina,Serbia,43.981389,21.262222,35282
Ruma,Serbia,45.008056,19.822222,33116
Kosovo Polje,Serbia,42.639444,21.096111,32098
Backa Palanka,Serbia,45.250833,19.391944,30208
Indija,Serbia,45.049167,20.079167,27228
Prokuplje,Serbia,43.234167,21.588056,26937
Vrbas,Serbia,45.571389,19.640833,25991
Orahovac,Serbia,42.399444,20.654722,25889
Becej,Serbia,45.618889,20.036111,25562
Smederevska Palanka,Serbia,44.365833,20.962778,25516
Paracin,Serbia,43.860833,21.407778,25411
Arandelovac,Serbia,44.306944,20.56,24674
Gornji Milanovac,Serbia,44.033333,20.45,24555
Lazarevac,Serbia,44.379722,20.263889,24503
Obrenovac,Serbia,44.653889,20.2,24257
Kaluderica,Serbia,44.751944,20.553333,23712
Mladenovac,Serbia,44.438611,20.699167,22087
Mladenovac,Serbia,44.466667,20.716667,22087
Loznica,Serbia,44.534167,19.224167,21287
Veternik,Serbia,45.253333,19.759444,21018
Cuprija,Serbia,43.9275,21.37,20373
Senta,Serbia,45.9275,20.077222,19891
Temerin,Serbia,45.408611,19.889167,19877
Apatin,Serbia,45.671111,18.984722,19677
Kula,Serbia,45.608889,19.526389,19395
Futog,Serbia,45.241111,19.71,19340
Stara Pazova,Serbia,44.985,20.160833,19183
Priboj,Serbia,43.583611,19.525833,19139
Sremcica,Serbia,44.676944,20.393056,19077
Nova Pazova,Serbia,44.944722,20.219722,18986
Negotin,Serbia,44.226389,22.530833,18000
Trstenik,Serbia,43.616944,21.0025,17309
Sid,Serbia,45.128333,19.226389,16937
Vlasotince,Serbia,42.963611,22.123056,16673
Aleksinac,Serbia,43.541667,21.707778,16652
Velika Plana,Serbia,44.326111,21.074167,16148
Backa Topola,Serbia,45.815,19.636111,16082
Surcin,Serbia,44.793056,20.280278,14867
Prijepolje,Serbia,43.371944,19.640556,14811
Petrovaradin,Serbia,45.246667,19.879444,14787
Kovin,Serbia,44.7475,20.976111,14472
Novi Becej,Serbia,45.598611,20.135556,14243
Kursumlija,Serbia,43.145833,21.268611,13979
Presevo,Serbia,42.309167,21.649167,13537
Pozega,Serbia,43.846389,20.041389,13403
Srbobran,Serbia,45.553889,19.802778,13170
Sjenica,Serbia,43.273056,19.999444,12888
Ivanjica,Serbia,43.580278,20.231111,12667
Sremska Kamenica,Serbia,45.223333,19.843056,12220
Bujanovac,Serbia,42.459167,21.766667,12109
Kac,Serbia,45.304167,19.941944,11635
Lacarak,Serbia,45.002222,19.568611,11170
Ripanj,Serbia,44.638611,20.520833,10827
Surdulica,Serbia,42.690556,22.170833,10816
Bela Crkva,Serbia,44.8975,21.417222,10586
Novi Banovci,Serbia,44.954722,20.281944,10378
Ada,Serbia,45.8025,20.125833,10259
Nova Varos,Serbia,43.460556,19.811389,10166
Crvenka,Serbia,45.658611,19.455556,10147
Lebane,Serbia,42.923889,21.7375,10086
Vrnjacka Banja,Serbia,43.616667,20.9,9998
Kanjiza,Serbia,46.066667,20.05,9972
Zabalj,Serbia,45.372222,20.063889,9844
Bajina Basta,Serbia,43.970833,19.5675,9812
Odzaci,Serbia,45.506667,19.261111,9749
Svilajnac,Serbia,44.229444,21.197222,9677
Majdanpek,Serbia,44.424444,21.935833,9606
Padinska Skela,Serbia,44.943889,20.429722,9353
Sremski Karlovci,Serbia,45.2025,19.934444,9255
Kostolac,Serbia,44.711944,21.168889,9248
Kostolac,Serbia,44.735,21.195556,9248
Tutin,Serbia,42.990278,20.331389,9224
Kladovo,Serbia,44.606667,22.611944,9061
Lestane,Serbia,44.730556,20.575833,9024
Vrcin,Serbia,44.668611,20.594167,8949
Sivac,Serbia,45.704167,19.379722,8899
Curug,Serbia,45.473056,20.071389,8876
Barajevo,Serbia,44.578889,20.415833,8828
Barajevo,Serbia,44.608889,20.454722,8828
Bela Palanka,Serbia,43.218333,22.311111,8763
Bajmok,Serbia,45.967778,19.423333,8599
Grocka,Serbia,44.672222,20.7175,8580
Vladicin Han,Serbia,42.707778,22.063333,8453
Dobanovci,Serbia,44.826944,20.225556,8217
Beocin,Serbia,45.198333,19.7225,8122
Ugrinovci,Serbia,44.878333,20.186944,7971
Petrovac,Serbia,44.376944,21.419167,7920
Loznicko Polje,Serbia,44.558056,19.215833,7841
Palic,Serbia,46.108889,19.767222,7822
Svrljig,Serbia,43.413333,22.121111,7813
Sevojno,Serbia,43.845,19.898611,7692
Starcevo,Serbia,44.807222,20.704722,7629
Kacarevo,Serbia,44.966389,20.693611,7556
Novi Knezevac,Serbia,46.05,20.1,7499
Banatsko Novo Selo,Serbia,44.989722,20.783611,7397
Bogatic,Serbia,44.8375,19.480556,7370
Klupci,Serbia,44.531389,19.251944,7366
Lapovo,Serbia,44.183333,21.1,7302
Backo Petrovo Selo,Serbia,45.708056,20.075278,7129
Cantavir,Serbia,45.920278,19.763056,7039
Majur,Serbia,44.769722,19.654444,6984
Arilje,Serbia,43.753056,20.095556,6921
Dimitrovgrad,Serbia,43.014167,22.775556,6887
Dolovo,Serbia,44.901111,20.8775,6861
Baric,Serbia,44.652222,20.259444,6837
Veliki Trnovac,Serbia,42.476667,21.740278,6812
Kovacica,Serbia,45.111667,20.621389,6693
Backi Petrovac,Serbia,45.360556,19.591667,6649
Mol,Serbia,45.764167,20.131111,6649
Raska,Serbia,43.287222,20.615278,6622
Banja Koviljaca,Serbia,44.5125,19.158333,6540
Omoljica,Serbia,44.760556,20.728056,6490
Melenci,Serbia,45.513889,20.317222,6439
Beska,Serbia,45.129722,20.066111,6328
Backi Jarak,Serbia,45.370278,19.875,6250
Pocerski Pricinovic,Serbia,44.722222,19.707222,6187
Zvecka,Serbia,44.638889,20.164722,6180
Vranjska Banja,Serbia,42.555,21.992222,6159
Rumenka,Serbia,45.293056,19.743889,6139
Horgos,Serbia,46.155556,19.9725,6123
Kljajicevo,Serbia,45.769722,19.277778,6115
Bac,Serbia,45.391944,19.236667,6110
Jakovo,Serbia,44.756389,20.260556,6077
Ub,Serbia,44.456111,20.073889,6068
Bolec,Serbia,44.724722,20.603333,6050
Bavaniste,Serbia,44.818889,20.875833,6027
Vinca,Serbia,44.76,20.619722,6027
Donji Komren,Serbia,43.349167,21.880556,5969
Stari Banovci,Serbia,44.986389,20.286667,5916
Mokrin,Serbia,45.935833,20.407222,5833
Titel,Serbia,45.206111,20.294444,5831
Banatski Karlovac,Serbia,45.047222,21.016111,5799
Veliko Gradiste,Serbia,44.756667,21.513611,5752
Kovilj,Serbia,45.227778,20.021667,5736
Padina,Serbia,45.118056,20.727222,5731
Topola,Serbia,44.254167,20.6825,5663
Kusadak,Serbia,44.399722,20.803333,5630
Batocina,Serbia,44.153611,21.081667,5622
Stara Moravica,Serbia,45.868889,19.466111,5559
Celarevo,Serbia,45.269444,19.525278,5554
Lozovik,Serbia,44.4625,21.103333,5545
Backo Gradiste,Serbia,45.532778,20.028333,5453
Mali Idos,Serbia,45.708333,19.665278,5412
Badovinci,Serbia,44.785833,19.371389,5402
Kisac,Serbia,45.350278,19.728611,5395
Umka,Serbia,44.678056,20.304722,5336
Durdevo,Serbia,45.324722,20.064722,5295
Bezdan,Serbia,45.852778,18.930556,5270
Vojka,Serbia,44.939722,20.153889,5173
Ruski Krstur,Serbia,45.562778,19.415833,5122
Cicevac,Serbia,43.720278,21.445833,5031
Irig,Serbia,45.101111,19.858333,4988
Radinac,Serbia,44.626944,20.968056,4918
Krupanj,Serbia,44.365556,19.361944,4913
Karavukovo,Serbia,45.495,19.188056,4894
Sonta,Serbia,45.594722,19.098056,4881
Mali Zvornik,Serbia,44.395278,19.115833,4875
Rusanj,Serbia,44.681667,20.440556,4839
Prigrevica,Serbia,45.678611,19.086667,4808
Crepaja,Serbia,45.009444,20.635556,4794
Sajkas,Serbia,45.272222,20.089722,4785
Koceljeva,Serbia,44.473611,19.811667,4748
Stanisic,Serbia,45.94,19.165278,4748
Lesnica,Serbia,44.6525,19.31,4715
Donja Vrezina,Serbia,43.328889,21.950556,4676
Opovo,Serbia,45.052222,20.430278,4657
Brzi Brod,Serbia,43.310278,21.966667,4656
Kucura,Serbia,45.518889,19.588056,4653
Brus,Serbia,43.383611,21.033611,4651
Coka,Serbia,45.9425,20.143333,4617
Babusnica,Serbia,43.059722,22.411667,4606
Azanja,Serbia,44.433056,20.879722,4603
Veliki Crljeni,Serbia,44.4675,20.284444,4565
Kucevo,Serbia,44.4775,21.67,4552
Despotovac,Serbia,44.0925,21.446944,4489
Lucani,Serbia,43.860833,20.138056,4324
Ljubovija,Serbia,44.189444,19.376667,4243
Kosjeric,Serbia,43.996111,19.906944,4200
Ostruznica,Serbia,44.728333,20.319167,4005
Macvanska Mitrovica,Serbia,44.965556,19.598056,3862
Boljevac,Serbia,43.830278,21.953056,3765
Beli Potok,Serbia,43.535833,22.082222,3645
Lajkovac,Serbia,44.369444,20.165278,3450
Alibunar,Serbia,45.080833,20.965833,3353
Cajetina,Serbia,43.75,19.716667,3309
Zitiste,Serbia,45.485,20.549722,3297
Osecina,Serbia,44.373056,19.601389,3272
Vucje,Serbia,42.865278,21.911389,3190
Donji Milanovac,Serbia,44.475556,22.115833,3069
Ljig,Serbia,44.224444,20.240278,3060
Mataruska Banja,Serbia,43.688611,20.610556,2887
Jasa Tomic,Serbia,45.446944,20.855278,2876
Pinosava,Serbia,44.695278,20.480833,2871
Ribnica,Serbia,43.71,20.690833,2770
Medveda,Serbia,43.629167,21.078333,2759
Raca,Serbia,44.919167,19.287222,2757
Bosilegrad,Serbia,42.4975,22.468611,2713
Zlatibor,Serbia,43.723333,19.704167,2497
Grdelica,Serbia,42.901667,22.07,2371
Resavica,Serbia,44.066389,21.520278,2309
Ovca,Serbia,44.887778,20.535556,2300
Guca,Serbia,43.776667,20.225278,2014
Rudovci,Serbia,44.366667,20.416667,1779
Sopot,Serbia,44.519722,20.573611,1775
Mionica,Serbia,44.251944,20.081667,1724
Baljevac,Serbia,43.3925,20.636389,1625
Bogovina,Serbia,43.895,21.940278,1201
Predejane,Serbia,42.829444,22.131111,1174
Josanicka Banja,Serbia,43.389167,20.752222,1145
Brza Palanka,Serbia,44.466667,22.45,1054
